"","lon","lat","city_ref","anomalie","class_anomalie","class_nova"
"1",-73.436212623797,-7.50637570685889,"Mâncio Lima",0.000158089953343758,"Emission","< 1"
"2",-73.2237996935056,-7.84388048443167,"Rodrigues Alves",0.00158005591727034,"Emission","< 1"
"3",-72.8445879498086,-7.22978092952451,"Guajará",0.00154954854049617,"Emission","< 1"
"4",-72.769501,-7.59991,"Cruzeiro Do Sul",0.00286527104417278,"Emission","< 1"
"5",-72.7553304218677,-7.9725286397621,"Cruzeiro Do Sul",0.00434034753877472,"Emission","< 1"
"6",-72.7349135140501,-8.49244909146235,"Porto Walter",0.000119277684000025,"Emission","< 1"
"7",-72.5593640255015,-9.09688649135233,"Marechal Thaumaturgo",9.93465471008425e-05,"Emission","< 1"
"8",-71.9058207693425,-9.24226548573283,"Jordão",0.000408833581296696,"Emission","< 1"
"9",-71.7407247801727,-5.71061130978623,"Atalaia Do Norte",0.00286102928461244,"Emission","< 1"
"10",-71.4449915259482,-8.23946595661596,"Tarauacá",0.00466158193224812,"Emission","< 1"
"11",-71.4128668677446,-7.18051157923575,"Ipixuna",0.00318627000722521,"Emission","< 1"
"12",-70.7444757427875,-8.92429348856395,"Feijó",0.0104548354116815,"Emission","< 1"
"13",-70.3964080617679,-9.41234936079402,"Santa Rosa Do Purus",0.00156283629850144,"Emission","< 1"
"14",-70.2768377851722,-5.42842836610177,"Benjamin Constant",-0.000303615604268307,"Removal","< 0"
"15",-70.218248152793,-7.02199804721698,"Eirunepé",0.00133255317367524,"Emission","< 1"
"16",-70.0550858891606,-7.57330419046941,"Envira",0.00141225456121417,"Emission","< 1"
"17",-70.0061515758409,-10.780268510515,"Assis Brasil",0.00438972154599652,"Emission","< 1"
"18",-69.9428,-4.2339,"Tabatinga",-0.000457655038578134,"Removal","< 0"
"19",-69.935799,-4.25567,"Tabatinga",0.00415983100835267,"Emission","< 1"
"20",-69.8797988891602,-6.63953018188477,"Eirunepé",-0.000346492077097644,"Removal","< 0"
"21",-69.8557015662941,-9.38328008246644,"Manoel Urbano",0.00850236478932486,"Emission","< 1"
"22",-69.6756879652419,-4.0288289219263,"Tabatinga",-0.000164975043317058,"Removal","< 0"
"23",-69.4511185863739,-4.50143648494653,"São Paulo De Olivença",-0.00167431460347822,"Removal","< 0"
"24",-69.3830075269298,-9.77220173684327,"Sena Madureira",0.0256077537745588,"Emission","< 1"
"25",-69.2065513599838,-10.7495372422272,"Brasiléia",0.00903327588968923,"Emission","< 1"
"26",-69.0872585282825,-3.05237276981368,"Santo Antônio Do Içá",0.0010257848877266,"Emission","< 1"
"27",-68.6182824581683,-10.8891209528503,"Epitaciolândia",0.00585383336270806,"Emission","< 1"
"28",-68.5044408136186,-10.5755718755675,"Xapuri",0.0144973242951377,"Emission","< 1"
"29",-68.4063044801014,-4.71529084220981,"Jutaí",0.00488083846058813,"Emission","< 1"
"30",-68.3710619510093,-10.0661349491742,"Rio Branco",0.0207373712566725,"Emission","< 1"
"31",-68.3166919207107,-1.69970336927077,"Japurá",-0.00151044037640492,"Removal","< 0"
"32",-68.2864994699081,-3.41843342830083,"Amaturá",-0.000447178437741505,"Removal","< 0"
"33",-68.1971409475066,-7.75780543969732,"Pauini",0.00637660200167884,"Emission","< 1"
"34",-68.1737108690377,-9.61409487407495,"Bujari",0.0113613845872951,"Emission","< 1"
"35",-68.1128412174588,-6.68282224110506,"Itamarati",0.00140685752537027,"Emission","< 1"
"36",-68.0476335877583,-8.77315466766972,"Boca Do Acre",0.0192037302810206,"Emission","< 1"
"37",-68.0017764798898,0.365586186993581,"São Gabriel Da Cachoeira",-0.00559940704668087,"Removal","< 0"
"38",-67.893984,-9.869031,"Rio Branco",0.0287705673320443,"Emission","< 1"
"39",-67.8364698182792,-10.4734240655898,"Capixaba",0.00625343919607027,"Emission","< 1"
"40",-67.83,-9.947,"Rio Branco",-1.25253169023994e-05,"Removal","< 0"
"41",-67.8260494656625,-2.69180916604253,"Japurá",0.000390071000998043,"Emission","< 1"
"42",-67.791,-9.931,"Rio Branco",0.00656737717187053,"Emission","< 1"
"43",-67.786,-9.964,"Rio Branco",0.00282308845515033,"Emission","< 1"
"44",-67.768,-10.034,"Rio Branco",0.00118082188786226,"Emission","< 1"
"45",-67.6984871061968,-9.62947370630415,"Porto Acre",0.00868922594428003,"Emission","< 1"
"46",-67.4275936314969,-9.99722089624224,"Senador Guiomard",0.0115783791440278,"Emission","< 1"
"47",-67.3401303333523,-10.2485083732382,"Plácido De Castro",0.00509065372130956,"Emission","< 1"
"48",-67.3374716381014,-5.1185164885162,"Carauari",0.00426022239227168,"Emission","< 1"
"49",-66.9855,-0.14835,"São Gabriel Da Cachoeira",-0.000396953844474815,"Removal","< 0"
"50",-66.9501921701075,-9.93357329811221,"Acrelândia",0.00361885591548616,"Emission","< 1"
"51",-66.3579242156695,-2.49098554027089,"Fonte Boa",-0.00066756970712018,"Removal","< 0"
"52",-66.3077991877054,-3.5244642076617,"Juruá",0.00170486801764203,"Emission","< 1"
"53",-65.8116628613948,-8.37560148087939,"Lábrea",0.0291994684497681,"Emission","< 1"
"54",-65.5315360442968,-4.47011066732884,"Tefé",0.00272978885233346,"Emission","< 1"
"55",-65.5213054447365,-0.318343806838944,"Santa Isabel Do Rio Negro",0.0104002629219797,"Emission","< 1"
"56",-65.4107896638204,-3.1656558635417,"Uarini",0.00329772084430547,"Emission","< 1"
"57",-65.3244466984137,-3.69468474667569,"Alvarães",0.00108308360306955,"Emission","< 1"
"58",-65.0395512290932,-2.42682864332425,"Maraã",0.00140872418949102,"Emission","< 1"
"59",-64.9557964235078,-6.09370196685332,"Tapauá",0.0089645565436903,"Emission","< 1"
"60",-64.724098,-3.38294,"Tefé",0.00203360281817933,"Emission","< 1"
"61",-64.7033,-3.3458,"Tefé",-0.000395890257873023,"Removal","< 0"
"62",-64.6265369340764,-10.3827186401927,"Nova Mamoré",0.0177455216412138,"Emission","< 1"
"63",-64.6154,-4.1728,"Coari",0.000490993216856408,"Emission","< 1"
"64",-64.5342086540273,-11.3044952928918,"Guajará-Mirim",-0.000512083134198046,"Removal","< 0"
"65",-64.3077392911091,-9.15396949952705,"Porto Velho",0.0454005881868774,"Emission","< 1"
"66",-64.1253106463893,-4.43635141737092,"Coari",0.00366046073582339,"Emission","< 1"
"67",-64.0619034098736,-7.30075809991637,"Canutama",0.00156924392502183,"Emission","< 1"
"68",-64.0583379578841,-12.1469701531867,"Costa Marques",-0.000252434891292311,"Removal","< 0"
"69",-63.9411627315935,-10.0521152951453,"Buritis",0.000395747471589582,"Emission","< 1"
"70",-63.90242,-8.707854,"Porto Velho",0.0699268817857457,"Emission","< 1"
"71",-63.7997164659949,-10.4849339751875,"Campo Novo De Rondônia",0.00361334151363058,"Emission","< 1"
"72",-63.468165,-8.740355,"Candeias Do Jamari",0.0221241003694684,"Emission","< 1"
"73",-63.4347637971427,-0.465034755640813,"Barcelos",0.00570413542636776,"Emission","< 1"
"74",-63.3943222506631,-9.64931030381078,"Alto Paraíso",0.00586825502220901,"Emission","< 1"
"75",-63.3723926081637,-10.2108324960752,"Monte Negro",0.00813384495661056,"Emission","< 1"
"76",-63.3256206264706,-8.8869938892035,"Candeias Do Jamari",0.00808191470983362,"Emission","< 1"
"77",-63.2306990655302,-11.8072176455011,"Seringueiras",0.00639899048533167,"Emission","< 1"
"78",-63.184012138019,-10.7480293450291,"Governador Jorge Teixeira",0.00796621427262546,"Emission","< 1"
"79",-63.14,-4.0833,"Coari",-0.000300074788810515,"Removal","< 0"
"80",-63.132599,-4.13406,"Coari",-0.000409475605684715,"Removal","< 0"
"81",-63.1221051726145,-12.3685607594049,"São Francisco Do Guaporé",-0.00443230391342137,"Removal","< 0"
"82",-63.0449412856846,-9.17020967814704,"Itapuã Do Oeste",-0.000232631650077256,"Removal","< 0"
"83",-62.9872612863041,-10.3316028105156,"Cacaulândia",0.0104376965100353,"Emission","< 1"
"84",-62.9832482504681,-11.6149688629242,"Seringueiras",0.00606932062149466,"Emission","< 1"
"85",-62.9733150244066,-3.2889719656745,"Codajás",0.000956595836795903,"Emission","< 1"
"86",-62.9572552229938,-9.9518900066049,"Ariquemes",0.0195024318817444,"Emission","< 1"
"87",-62.8479793319319,-11.0768378400064,"Mirante Da Serra",0.00329618173833031,"Emission","< 1"
"88",-62.7900744846809,-9.64521156279041,"Rio Crespo",0.010670500642869,"Emission","< 1"
"89",-62.7599859198288,3.07555893733847,"Alto Alegre",0.0327450951322508,"Emission","< 1"
"90",-62.5848655794467,-10.5924480639812,"Jaru",0.0221005178127464,"Emission","< 1"
"91",-62.5653358423403,-9.17109363334403,"Cujubim",0.0049978368598907,"Emission","< 1"
"92",-62.5449922370376,-11.3114209655766,"Alvorada D'oeste",0.0134572785782807,"Emission","< 1"
"93",-62.5323571382092,-10.8893442850586,"Nova União",-3.715991465776e-05,"Removal","< 0"
"94",-62.4864352937305,-7.36121764048094,"Humaitá",-0.00199252665504599,"Removal","< 0"
"95",-62.4362677327624,3.73190083214486,"Amajari",-0.00940853203418696,"Removal","< 0"
"96",-62.4315660341966,2.18710190445277,"Mucajaí",0.00418262356272593,"Emission","< 1"
"97",-62.4244103378031,-11.103952818163,"Urupá",0.00448180101212935,"Emission","< 1"
"98",-62.3425045479453,-10.1217688667463,"Theobroma",0.0103860056097745,"Emission","< 1"
"99",-62.292,-11.342,"Alvorada D'oeste",6.29193064942016e-05,"Emission","< 1"
"100",-62.2802379253454,-11.6431190143848,"Nova Brasilândia D'oeste",0.00910101689501401,"Emission","< 1"
"101",-62.2797715973984,-10.9434532789846,"Teixeirópolis",-0.0001159624341079,"Removal","< 0"
"102",-62.2745291015361,-12.4699545852392,"São Francisco Do Guaporé",0.0234097936937736,"Emission","< 1"
"103",-62.1725323786917,-10.6105530023623,"Vale Do Paraíso",0.0267003021510728,"Emission","< 1"
"104",-62.0954094840384,-4.19868021463277,"Anori",-0.000327949280912546,"Removal","< 0"
"105",-62.0940465250114,-10.3842566967605,"Vale Do Paraíso",0.00789212982288646,"Emission","< 1"
"106",-62.0832019661713,-11.6810939110983,"Novo Horizonte Do Oeste",0.00500358300130679,"Emission","< 1"
"107",-62.0603,-3.8442,"Codajás",-0.000431956473944566,"Removal","< 0"
"108",-62.010379651234,-9.20409149767888,"Machadinho D'oeste",0.0166297659902723,"Emission","< 1"
"109",-61.996788650414,2.51097097487497,"Mucajaí",0.0144202805215459,"Emission","< 1"
"110",-61.9391006698644,-9.73243429208468,"Vale Do Anari",-0.000346238808104527,"Removal","< 0"
"111",-61.8804677752413,-12.5931927088099,"Alto Alegre Dos Parecis",0.00206590979336088,"Emission","< 1"
"112",-61.8800697923836,-11.4708022615799,"Castanheiras",0.00647242485415237,"Emission","< 1"
"113",-61.8779528163675,-11.1662739687853,"Presidente Médici",0.0185999017937792,"Emission","< 1"
"114",-61.8777578071592,-3.08201899753601,"Caapiranga",0.00333243895291269,"Emission","< 1"
"115",-61.846675,-10.870743,"Ji-Paraná",0.000964824122599393,"Emission","< 1"
"116",-61.8043525681089,-4.60623287371256,"Beruri",0.00200728705805505,"Emission","< 1"
"117",-61.7715555290385,-11.7325577357808,"Rolim De Moura",0.0126008821426307,"Emission","< 1"
"118",-61.7572526727755,-10.4622205325893,"Ji-Paraná",0.0259838655207825,"Emission","< 1"
"119",-61.7179878784548,-3.50185678710303,"Anamã",0.00107218898304918,"Emission","< 1"
"120",-61.7034202944486,-2.04824598759018,"Novo Airão",0.00483207330768275,"Emission","< 1"
"121",-61.7010906021591,-12.0269677882955,"Santa Luzia D'oeste",0.0121600615492382,"Emission","< 1"
"122",-61.6578,-3.7489,"Anori",-0.000471517190876185,"Removal","< 0"
"123",-61.5689691690567,-11.1602942686694,"Ministro Andreazza",0.0044550556720481,"Emission","< 1"
"124",-61.5452449793137,-13.16545352887,"Cerejeiras",0.00455414849000431,"Emission","< 1"
"125",-61.472,-11.448,"Cacoal",0.00204117683434708,"Emission","< 1"
"126",-61.4703827702326,0.991174857492033,"Caracaraí",0.00577212598670812,"Emission","< 1"
"127",-61.4670704163671,-11.9049679731006,"São Felipe D'oeste",0.000230086003275345,"Emission","< 1"
"128",-61.4508,-11.496,"Cacoal",0.00239014170030101,"Emission","< 1"
"129",-61.4467731433051,-6.45995976145932,"Manicoré",0.00530799111911479,"Emission","< 1"
"130",-61.4153836839233,-12.2623269078721,"Parecis",7.99934746800017e-06,"Emission","< 1"
"131",-61.3765,2.0833,"Iracema",-2.74295918503525e-05,"Removal","< 0"
"132",-61.32472902977,-11.3012876228836,"Cacoal",0.0225787790284419,"Emission","< 1"
"133",-61.3153353804453,-11.878685960501,"Primavera De Rondônia",0.000438877919496851,"Emission","< 1"
"134",-61.2609495576208,-13.2035616127216,"Cerejeiras",0.0349746989401618,"Emission","< 1"
"135",-61.091646457599,-12.9266294189634,"Corumbiara",0.0208356333430721,"Emission","< 1"
"136",-61.0111750079715,0.038040997334684,"Rorainópolis",0.00469349177865093,"Emission","< 1"
"137",-61.009965851638,-10.4630597738196,"Rondolândia",0.0149052832198831,"Emission","< 1"
"138",-60.9587578017748,-3.29153816842941,"Manacapuru",0.00411750541516318,"Emission","< 1"
"139",-60.8983840447615,-12.5373282365406,"Chupinguaia",-0.00285235268050414,"Removal","< 0"
"140",-60.8442940271488,4.16878320977885,"Pacaraima",0.00417784704206702,"Emission","< 1"
"141",-60.8303966675936,-11.8944666198303,"Pimenta Bueno",0.0449088156275471,"Emission","< 1"
"142",-60.7848307947635,-11.3513419023232,"Espigão D'oeste",0.0170915889700079,"Emission","< 1"
"143",-60.7179530850046,3.11791500098908,"Boa Vista",0.0594044608846311,"Emission","< 1"
"144",-60.6972660623645,-3.77905074057947,"Manaquiri",0.00201933794640066,"Emission","< 1"
"145",-60.690944,2.845855,"Boa Vista",0.0176030288387097,"Emission","< 1"
"146",-60.6394626097032,-13.4744355013202,"Cabixi",0.00886455261485795,"Emission","< 1"
"147",-60.5502444357698,-13.1591530901586,"Colorado Do Oeste",0.0168658345008622,"Emission","< 1"
"148",-60.5422849704425,2.27283671804715,"Cantá",0.00679865441775415,"Emission","< 1"
"149",-60.4796872188964,-3.09521872533159,"Iranduba",0.0011546775354021,"Emission","< 1"
"150",-60.4771547995604,-6.82401290167253,"Novo Aripuanã",0.00280046341843639,"Emission","< 1"
"151",-60.30419381056,-9.29244066509173,"Colniza",0.0180031701099602,"Emission","< 1"
"152",-60.3009784,-14.26727396,"Vila Bela Da Santíssima Trindade",0.000872069919868398,"Emission","< 1"
"153",-60.2764116631871,4.68251977609818,"Uiramutã",0.0174317011939121,"Emission","< 1"
"154",-60.2596280142148,-2.62591938262421,"Manaus",0.000817252880474157,"Emission","< 1"
"155",-60.248420415597,-12.0956220171342,"Vilhena",0.0285899154777728,"Emission","< 1"
"156",-60.20800377,-14.41173578,"Vila Bela Da Santíssima Trindade",0.0034238199198684,"Emission","< 1"
"157",-60.1832732709511,-3.7704842987351,"Careiro",0.00565412220080485,"Emission","< 1"
"158",-60.16356503,-14.48780741,"Vila Bela Da Santíssima Trindade",0.0043268199198684,"Emission","< 1"
"159",-60.16324926,-14.05074326,"Nova Lacerda",0.0014806699198684,"Emission","< 1"
"160",-60.1518359998705,0.884434676144147,"São Luiz",0.00539976807111042,"Emission","< 1"
"161",-60.12016128,-12.84515382,"Vilhena",0.0040997199198684,"Emission","< 1"
"162",-60.11332637,-14.60067717,"Vila Bela Da Santíssima Trindade",-0.000495180080131603,"Removal","< 0"
"163",-60.1001390335274,2.78882424736166,"Bonfim",0.062068055973099,"Emission","< 1"
"164",-60.098301,-12.6944,"Vilhena",0.000798712323174723,"Emission","< 1"
"165",-60.06674115,-13.9839163,"Comodoro",-0.000383130080131602,"Removal","< 0"
"166",-60.0638393723615,3.87868247155159,"Normandia",0.0296147451519958,"Emission","< 1"
"167",-60.05875572,-12.63118944,"Comodoro",0.0050373699198684,"Emission","< 1"
"168",-60.05737987,-14.00734243,"Comodoro",0.000620469919868398,"Emission","< 1"
"169",-60.049702,-3.03861,"Manaus",0.217237349173828,"Emission","< 1"
"170",-60.03,-2.057,"Presidente Figueiredo",-0.000343677462416477,"Removal","< 0"
"171",-60.0045,-3.1487,"Manaus",0.0015058837035219,"Emission","< 1"
"172",-59.9895527675489,-1.37091958202035,"Presidente Figueiredo",0.00733985820759747,"Emission","< 1"
"173",-59.9860080539587,-15.1894443179208,"Vila Bela Da Santíssima Trindade",0.108369590997361,"Emission","< 1"
"174",-59.953955,-3.145973,"Manaus",0.277595690919868,"Emission","< 1"
"175",-59.915041,-3.090327,"Manaus",0.0302241532532017,"Emission","< 1"
"176",-59.912,-3.13,"Manaus",0.000112605638856959,"Emission","< 1"
"177",-59.90664622,-15.17852809,"Vila Bela Da Santíssima Trindade",0.000872069919868398,"Emission","< 1"
"178",-59.8563076907437,-10.1796639413478,"Aripuanã",0.0271012119826036,"Emission","< 1"
"179",-59.8450199612636,0.635780151206283,"São João Da Baliza",0.00557308627728345,"Emission","< 1"
"180",-59.7714556221057,-14.2998341005992,"Nova Lacerda",0.00578950383650927,"Emission","< 1"
"181",-59.7504357914881,-13.1928102434668,"Comodoro",0.04706520063842,"Emission","< 1"
"182",-59.73305031,-14.85543805,"Vila Bela Da Santíssima Trindade",-0.000495180080131603,"Removal","< 0"
"183",-59.69373179,-14.5907001,"Nova Lacerda",0.000324569919868398,"Emission","< 1"
"184",-59.63880299,-14.95945934,"Vila Bela Da Santíssima Trindade",0.0020031699198684,"Emission","< 1"
"185",-59.6383804200631,-2.52982292512501,"Rio Preto Da Eva",0.000232930273575536,"Emission","< 1"
"186",-59.5986769964611,-3.28601205048528,"Careiro Da Várzea",0.0082308677456583,"Emission","< 1"
"187",-59.55963701,-14.50267809,"Conquista D'oeste",0.0021248699198684,"Emission","< 1"
"188",-59.5346939284343,-4.95761743498613,"Borba",-0.000900550595706265,"Removal","< 0"
"189",-59.5255338964513,-3.78723051138339,"Autazes",0.0123143941677739,"Emission","< 1"
"190",-59.477151,-1.914499,"Presidente Figueiredo",0.963608247006268,"Emission","< 1"
"191",-59.4577422970118,-15.516822642299,"Pontes E Lacerda",0.0522992508020486,"Emission","< 1"
"192",-59.432108352059,-7.75995148042286,"Apuí",0.0206642048325617,"Emission","< 1"
"193",-59.38243255,-15.07642429,"Pontes E Lacerda",0.0040420199198684,"Emission","< 1"
"194",-59.3801187,-15.24374158,"Pontes E Lacerda",-0.000495180080131603,"Removal","< 0"
"195",-59.338351861402,0.914951917819518,"Caroebe",-0.00241480288142119,"Removal","< 0"
"196",-59.335,-15.221,"Pontes E Lacerda",0.00137103502598323,"Emission","< 1"
"197",-59.3322362218606,-14.6346820273622,"Conquista D'oeste",0.00250878960297376,"Emission","< 1"
"198",-59.3244952468771,-11.5320946123302,"Juína",0.048417310279373,"Emission","< 1"
"199",-59.30607836,-15.08326848,"Pontes E Lacerda",0.000872069919868398,"Emission","< 1"
"200",-59.2844702,-14.88749554,"Pontes E Lacerda",-0.000495180080131603,"Removal","< 0"
"201",-59.25124047,-15.36744619,"Pontes E Lacerda",-0.000495180080131603,"Removal","< 0"
"202",-59.22649153,-15.07448883,"Pontes E Lacerda",-0.000495180080131603,"Removal","< 0"
"203",-59.193054405051,-13.579846004553,"Campos De Júlio",-0.00963170115786268,"Removal","< 0"
"204",-59.0295876768382,-0.894390376334288,"Urucará",-0.00306967111843199,"Removal","< 0"
"205",-58.9853022,-13.51031593,"Sapezal",0.000872069919868398,"Emission","< 1"
"206",-58.982335313613,-15.9564035325382,"Porto Esperidião",0.0440135679619885,"Emission","< 1"
"207",-58.9631074088735,-14.96610619188,"Vale De São Domingos",0.00431242740160563,"Emission","< 1"
"208",-58.8656657176541,-15.3047947834922,"Jauru",0.0178882082036438,"Emission","< 1"
"209",-58.7753427983357,-3.17412347315881,"Itacoatiara",0.00874401883381041,"Emission","< 1"
"210",-58.756,-11.406,"Juína",0.00172242841192079,"Emission","< 1"
"211",-58.73550902,-13.97145769,"Sapezal",0.0050099699198684,"Emission","< 1"
"212",-58.7052609787506,-1.94176235008035,"São Sebastião Do Uatumã",-0.00112826169271661,"Removal","< 0"
"213",-58.702574634848,-15.5273863779906,"Figueirópolis D'oeste",0.0142044738614078,"Emission","< 1"
"214",-58.6751545554186,-9.53785400436083,"Cotriguaçu",0.00797298285823231,"Emission","< 1"
"215",-58.65354990934,-13.1544363665191,"Sapezal",0.00685244984057224,"Emission","< 1"
"216",-58.63145488,-12.9749009,"Sapezal",0.000988969919868398,"Emission","< 1"
"217",-58.6248256086724,-10.397452407155,"Juruena",0.00703345001483364,"Emission","< 1"
"218",-58.6132683390867,-2.49723744324166,"Itapiranga",0.000364583839911901,"Emission","< 1"
"219",-58.602797237143,-10.9407260428102,"Castanheira",0.0222104556699106,"Emission","< 1"
"220",-58.60110603,-11.9000804,"Juína",0.000872069919868398,"Emission","< 1"
"221",-58.5997698709424,-3.98950282165114,"Nova Olinda Do Norte",0.00239659377901592,"Emission","< 1"
"222",-58.5975919818359,-15.3352019053271,"Indiavaí",0.00978140153098381,"Emission","< 1"
"223",-58.59528615,-12.94791838,"Sapezal",0.000435769919868398,"Emission","< 1"
"224",-58.58202454,-16.18384736,"Cáceres",-0.000495180080131603,"Removal","< 0"
"225",-58.5370873545728,-2.82054932167931,"Silves",0.00203951561198925,"Emission","< 1"
"226",-58.47600868,-12.9313239,"Sapezal",0.000872069919868398,"Emission","< 1"
"227",-58.4665,-3.143,"Itacoatiara",0.000146386316362043,"Emission","< 1"
"228",-58.459102659513,-15.2530162746388,"Araputanga",0.0222896975090139,"Emission","< 1"
"229",-58.4577798725755,-14.9284288173593,"Reserva Do Cabaçal",0.0118360276858379,"Emission","< 1"
"230",-58.45725864,-10.97232039,"Castanheira",-0.000169980080131602,"Removal","< 0"
"231",-58.3252925674605,-15.8391965486319,"Glória D'oeste",0.0099601720150748,"Emission","< 1"
"232",-58.2971145470606,-15.5665635515716,"São José Dos Quatro Marcos",0.0200419763133691,"Emission","< 1"
"233",-58.2914778422724,-14.4306181749795,"Tangará Da Serra",0.0145685416877218,"Emission","< 1"
"234",-58.2237603,-11.67679344,"Brasnorte",-6.29800801316025e-05,"Removal","< 0"
"235",-58.22353997,-11.5860165,"Brasnorte",0.0037658699198684,"Emission","< 1"
"236",-58.215637,-10.9937863,"Juara",-6.29800801316025e-05,"Removal","< 0"
"237",-58.18972293,-16.2559579,"Cáceres",-0.000495180080131603,"Removal","< 0"
"238",-58.16779271,-16.36321387,"Cáceres",0.000872069919868398,"Emission","< 1"
"239",-58.1497724865809,-15.2729671138773,"Rio Branco",0.00876460232229426,"Emission","< 1"
"240",-58.09989512,-15.614832,"Mirassol D'oeste",0.0013594199198684,"Emission","< 1"
"241",-58.085,-15.701,"Mirassol D'oeste",-0.000374482313161973,"Removal","< 0"
"242",-58.0769412732237,-9.76844110533613,"Nova Bandeirantes",0.0175322237292507,"Emission","< 1"
"243",-58.0609228492539,-4.98478095020853,"Maués",0.00178971576056976,"Emission","< 1"
"244",-58.0549594072212,-15.654156205262,"Mirassol D'oeste",0.0159954065572545,"Emission","< 1"
"245",-58.0508555148344,-15.0508597107544,"Salto Do Céu",0.0335710829951652,"Emission","< 1"
"246",-58.04784174,-15.58106205,"Mirassol D'oeste",-0.000216180080131603,"Removal","< 0"
"247",-58.03857337,-15.83545013,"Cáceres",-0.000495180080131603,"Removal","< 0"
"248",-57.9988367438931,-12.4231038202504,"Brasnorte",0.0343525858716611,"Emission","< 1"
"249",-57.9309533487676,-13.6882996068892,"Campo Novo Do Parecis",0.199300299551277,"Emission","< 1"
"250",-57.91358315,-15.43245546,"Lambari D'oeste",-0.000495180080131603,"Removal","< 0"
"251",-57.8925674,-13.50818396,"Campo Novo Do Parecis",0.000873969919868398,"Emission","< 1"
"252",-57.8764493715654,-15.6171127513687,"Curvelândia",0.00482491911529062,"Emission","< 1"
"253",-57.875,-21.714,"Porto Murtinho",4.31551323433306e-05,"Emission","< 1"
"254",-57.86135301,-15.88830541,"Cáceres",-0.000495180080131603,"Removal","< 0"
"255",-57.8340882546842,-16.5377804581933,"Cáceres",0.184590913970108,"Emission","< 1"
"256",-57.8259982118026,-8.75863583250204,"Apiacás",0.013861178716666,"Emission","< 1"
"257",-57.805907589702,-1.15915039022104,"Faro",-0.000384115863557015,"Removal","< 0"
"258",-57.7791794138456,-15.3770719107623,"Lambari D'oeste",0.0328445831267693,"Emission","< 1"
"259",-57.7713101392442,-2.81375732353147,"Urucurituba",0.00118286017140437,"Emission","< 1"
"260",-57.72370268,-14.62275954,"Tangará Da Serra",-6.23800801316025e-05,"Removal","< 0"
"261",-57.69024844,-11.18728143,"Juara",0.000872069919868398,"Emission","< 1"
"262",-57.672772,-19.01193,"Corumbá",0.00102695791574721,"Emission","< 1"
"263",-57.6701099090219,-3.13781090738501,"Maués",0.00299718631275221,"Emission","< 1"
"264",-57.665,-16.089,"Cáceres",-0.000433620965987879,"Removal","< 0"
"265",-57.661,-16.047,"Cáceres",-0.000259972221326875,"Removal","< 0"
"266",-57.6562448522704,-1.68058653918309,"Nhamundá",0.0052265349753514,"Emission","< 1"
"267",-57.644,-18.994,"Corumbá",-6.68427196549657e-05,"Removal","< 0"
"268",-57.639,-16.038,"Cáceres",-0.000425596556655605,"Removal","< 0"
"269",-57.62406,-19.00333,"Corumbá",0.0246730699198684,"Emission","< 1"
"270",-57.6184029212148,-11.0237322415865,"Juara",0.0661769587030486,"Emission","< 1"
"271",-57.615,-19,"Corumbá",0.00204124498667174,"Emission","< 1"
"272",-57.60957757,-13.69503914,"Campo Novo Do Parecis",0.0078686199198684,"Emission","< 1"
"273",-57.592,-19.004,"Ladário",-0.000316348380228548,"Removal","< 0"
"274",-57.58639771,-11.144907,"Juara",0.000872069919868398,"Emission","< 1"
"275",-57.57185265,-14.62391007,"Tangará Da Serra",-0.000495180080131603,"Removal","< 0"
"276",-57.5688143809632,-19.103063059395,"Ladário",0.00430419322340881,"Emission","< 1"
"277",-57.5595722059162,-15.0677598802489,"Barra Do Bugres",0.123741709351217,"Emission","< 1"
"278",-57.55911772,-13.55591953,"Campo Novo Do Parecis",0.0204669699198684,"Emission","< 1"
"279",-57.5509355,-14.59896529,"Tangará Da Serra",-0.000495180080131603,"Removal","< 0"
"280",-57.52774657,-15.10627806,"Barra Do Bugres",0.000873969919868398,"Emission","< 1"
"281",-57.526,-11.271,"Juara",0.000391481663671269,"Emission","< 1"
"282",-57.47,-14.592,"Tangará Da Serra",0.000345274387553025,"Emission","< 1"
"283",-57.4214512995378,-14.8044332812226,"Nova Olímpia",0.0528088124093575,"Emission","< 1"
"284",-57.41185776,-15.51473519,"Barra Do Bugres",-0.000495180080131603,"Removal","< 0"
"285",-57.3835337273035,-21.2249636182254,"Porto Murtinho",0.180956186425728,"Emission","< 1"
"286",-57.38267052,-11.31763727,"Novo Horizonte Do Norte",0.0032145199198684,"Emission","< 1"
"287",-57.3756541,-16.20446932,"Cáceres",-0.000495180080131603,"Removal","< 0"
"288",-57.346724904822,-14.4503292484128,"Santo Afonso",0.0248037971238636,"Emission","< 1"
"289",-57.3339630469314,-30.1524480455362,"Barra Do Quaraí",-0.000172244428601393,"Removal","< 0"
"290",-57.3035186883959,-11.3836015398611,"Novo Horizonte Do Norte",0.00714129321883429,"Emission","< 1"
"291",-57.3027053044799,-7.44528692343548,"Jacareacanga",0.00641366577121361,"Emission","< 1"
"292",-57.2574437430099,-14.2904297410748,"Nova Marilândia",0.0189238256626246,"Emission","< 1"
"293",-57.2456562178729,-9.97018572013359,"Nova Monte Verde",0.019454653927553,"Emission","< 1"
"294",-57.220274250998,-12.783863065376,"Nova Maringá",0.0257347715271908,"Emission","< 1"
"295",-57.2155045625486,-15.5211763771302,"Porto Estrela",0.0182070796522362,"Emission","< 1"
"296",-57.172383297958,-3.12902520639055,"Barreirinha",0.004295103942636,"Emission","< 1"
"297",-57.1497301230321,0.254069242583288,"Oriximiná",-0.00652544485631456,"Removal","< 0"
"298",-57.13890467,-14.98720974,"Barra Do Bugres",-6.29800801316025e-05,"Removal","< 0"
"299",-57.108,-29.793,"Uruguaiana",0.00401200575881222,"Emission","< 1"
"300",-57.0878853181094,-21.938284685685,"Caracol",0.0379337143150327,"Emission","< 1"
"301",-57.0382,-29.7822,"Uruguaiana",-0.000107395873622788,"Removal","< 0"
"302",-57.025,-22.011,"Caracol",-0.000469895567683419,"Removal","< 0"
"303",-57.00492408,-14.51646044,"Santo Afonso",0.0024476699198684,"Emission","< 1"
"304",-56.9616161414945,-14.7300760976715,"Denise",0.0643344126387421,"Emission","< 1"
"305",-56.9447028048734,-16.7828441432995,"Poconé",0.225570223339303,"Emission","< 1"
"306",-56.91585045,-14.41589358,"Arenápolis",0.000872069919868398,"Emission","< 1"
"307",-56.8593416125088,-14.5070910181997,"Arenápolis",0.00873492834859051,"Emission","< 1"
"308",-56.8546448662575,-2.68809796601227,"Parintins",0.0146783427602731,"Emission","< 1"
"309",-56.82623933,-9.89766565,"Paranaíta",0.0013435199198684,"Emission","< 1"
"310",-56.8081878294502,-13.5512338723252,"São José Do Rio Claro",0.0396710903046956,"Emission","< 1"
"311",-56.804568701896,-14.0957382916617,"Diamantino",0.120232230543065,"Emission","< 1"
"312",-56.777625,-2.673521,"Parintins",0.0011561588967516,"Emission","< 1"
"313",-56.7548781131128,-12.1403921842753,"Itanhangá",0.0055466770342788,"Emission","< 1"
"314",-56.75212315,-13.44696652,"São José Do Rio Claro",-0.000495180080131603,"Removal","< 0"
"315",-56.7456983475276,-11.7349582099712,"Porto Dos Gaúchos",0.0307997890187569,"Emission","< 1"
"316",-56.7301005038815,-29.8397310880143,"Uruguaiana",0.124301561642291,"Emission","< 1"
"317",-56.72942,-20.473665,"Bodoquena",0.0613589865865351,"Emission","< 1"
"318",-56.7232999325528,-18.7225931847311,"Corumbá",0.599186219955581,"Emission","< 1"
"319",-56.7224929356594,-14.3477372183183,"Nortelândia",0.0228330616154592,"Emission","< 1"
"320",-56.6994733379626,-20.5487721906108,"Bodoquena",0.0301366848259372,"Emission","< 1"
"321",-56.6825888031881,-9.59357436488209,"Paranaíta",0.0153857231534068,"Emission","< 1"
"322",-56.665,-20.513,"Bodoquena",-0.000219231317590647,"Removal","< 0"
"323",-56.6612417102326,-14.7597973704627,"Alto Paraguai",0.0377059257909362,"Emission","< 1"
"324",-56.622,-30.244,"Quaraí",-0.000359079887789225,"Removal","< 0"
"325",-56.5962366612485,-20.1212078931127,"Miranda",0.0854716919625049,"Emission","< 1"
"326",-56.5727399424274,-15.3378434813976,"Jangada",0.0111176665811484,"Emission","< 1"
"327",-56.55919592,-14.26851385,"Nortelândia",0.0119689699198684,"Emission","< 1"
"328",-56.5370815135,-21.9328419161303,"Bela Vista",0.0614252948173308,"Emission","< 1"
"329",-56.533,-22.127,"Bela Vista",-0.000155577046359911,"Removal","< 0"
"330",-56.5317642746599,-12.5680085976887,"Tapurah",0.0248218511261119,"Emission","< 1"
"331",-56.4967153033799,-5.87113529203093,"Itaituba",0.0129251682273176,"Emission","< 1"
"332",-56.4964420265308,-11.2141294806743,"Tabaporã",0.00997804033530904,"Emission","< 1"
"333",-56.4840398268255,-15.8390048101439,"Nossa Senhora Do Livramento",0.0551640823594353,"Emission","< 1"
"334",-56.4828142482968,-21.0332610277088,"Bonito",0.0810646773855297,"Emission","< 1"
"335",-56.479,-30.391,"Quaraí",0.00039141351134661,"Emission","< 1"
"336",-56.462,-21.127,"Bonito",0.000305148696698743,"Emission","< 1"
"337",-56.458424135588,-1.95150349336797,"Terra Santa",0.00501696547788628,"Emission","< 1"
"338",-56.452399,-21.2473,"Bonito",6.1372702016275e-05,"Emission","< 1"
"339",-56.436,-14.399,"Diamantino",-0.000366985557449573,"Removal","< 0"
"340",-56.421,-14.393,"Diamantino",-0.000486797344198647,"Removal","< 0"
"341",-56.398,-20.25,"Miranda",-0.000295766378181779,"Removal","< 0"
"342",-56.396801,-1.4896,"Oriximiná",-5.64412521755821e-05,"Removal","< 0"
"343",-56.39150447,-11.61089024,"Porto Dos Gaúchos",-0.000495180080131603,"Removal","< 0"
"344",-56.3795,-1.4626,"Oriximiná",0.000157879898975164,"Emission","< 1"
"345",-56.3677085015991,-10.0558045446585,"Alta Floresta",0.0608043379556238,"Emission","< 1"
"346",-56.356,-14.368,"Diamantino",-0.000396018447753956,"Removal","< 0"
"347",-56.3518225651313,-21.5819952582443,"Jardim",0.0310259314851563,"Emission","< 1"
"348",-56.3180357908441,-15.1772693549162,"Acorizal",0.0100864456320197,"Emission","< 1"
"349",-56.265285,-14.644156,"Nobres",0.0597109865865351,"Emission","< 1"
"350",-56.2427510769943,-15.5624784985691,"Várzea Grande",0.0021151405220114,"Emission","< 1"
"351",-56.22433167,-12.38046033,"Ipiranga Do Norte",-0.000495180080131603,"Removal","< 0"
"352",-56.2213899038594,-2.62288887000236,"Juruti",0.00621475164794627,"Emission","< 1"
"353",-56.219968,-4.321762,"Itaituba",0.0655102365865351,"Emission","< 1"
"354",-56.182,-15.626,"Várzea Grande",-0.000270277408759621,"Removal","< 0"
"355",-56.178,-15.634,"Várzea Grande",-0.000420212523007609,"Removal","< 0"
"356",-56.177,-21.465,"Jardim",-0.00047623373387663,"Removal","< 0"
"357",-56.176,-15.654,"Várzea Grande",-0.000465193057282005,"Removal","< 0"
"358",-56.176,-15.616,"Várzea Grande",-0.000435206034432408,"Removal","< 0"
"359",-56.1754617388141,-29.2135591504497,"Itaqui",0.0421710261614569,"Emission","< 1"
"360",-56.17,-15.613,"Várzea Grande",-0.000315257943034018,"Removal","< 0"
"361",-56.168,-15.612,"Várzea Grande",-0.000435206034432408,"Removal","< 0"
"362",-56.1674552537979,-13.0372626726435,"Lucas Do Rio Verde",0.116737494566411,"Emission","< 1"
"363",-56.164,-15.557,"Várzea Grande",-0.000479913959408171,"Removal","< 0"
"364",-56.15971636,-9.91901198,"Alta Floresta",-0.000495180080131603,"Removal","< 0"
"365",-56.1527374018117,-30.279385945492,"Quaraí",0.0571793597846853,"Emission","< 1"
"366",-56.149,-15.668,"Várzea Grande",-0.000465193057282005,"Removal","< 0"
"367",-56.137768,-15.333379,"Cuiabá",0.0600543199198684,"Emission","< 1"
"368",-56.135,-15.635,"Várzea Grande",-0.000420212523007609,"Removal","< 0"
"369",-56.13414289,-15.45451402,"Cuiabá",-0.000495180080131603,"Removal","< 0"
"370",-56.133,-21.465,"Jardim",-0.000302036392050331,"Removal","< 0"
"371",-56.131,-15.719,"Várzea Grande",-0.000420212523007609,"Removal","< 0"
"372",-56.13,-15.701,"Várzea Grande",-0.000420212523007609,"Removal","< 0"
"373",-56.13,-15.579,"Cuiabá",-0.000475892972253339,"Removal","< 0"
"374",-56.125,-15.58,"Cuiabá",-0.00049040941740553,"Removal","< 0"
"375",-56.124,-15.579,"Cuiabá",-0.000486729191873989,"Removal","< 0"
"376",-56.122,-15.579,"Cuiabá",-0.000486729191873989,"Removal","< 0"
"377",-56.12119545,-10.19133124,"Carlinda",-0.000495180080131603,"Removal","< 0"
"378",-56.121,-15.703,"Várzea Grande",-0.000435206034432408,"Removal","< 0"
"379",-56.116699,-15.6529,"Várzea Grande",0.191644207580508,"Emission","< 1"
"380",-56.11307002,-13.30939043,"Lucas Do Rio Verde",-0.000495180080131603,"Removal","< 0"
"381",-56.112,-15.606,"Cuiabá",-0.00048965974183429,"Removal","< 0"
"382",-56.111,-15.63,"Várzea Grande",0.000407361155316624,"Emission","< 1"
"383",-56.111,-15.604,"Cuiabá",-0.000493476272015148,"Removal","< 0"
"384",-56.109,-15.617,"Cuiabá",-0.000433244468408727,"Removal","< 0"
"385",-56.106298,-9.866389,"Alta Floresta",0.00299545543459681,"Emission","< 1"
"386",-56.1060542710769,-13.6295990661229,"Nova Mutum",0.154686968185037,"Emission","< 1"
"387",-56.105,-15.621,"Várzea Grande",-0.000435206034432408,"Removal","< 0"
"388",-56.099,-15.572,"Cuiabá",-0.000486729191873989,"Removal","< 0"
"389",-56.098,-9.852,"Alta Floresta",0.00188367681206203,"Emission","< 1"
"390",-56.097,-15.567,"Cuiabá",-0.000488773761613734,"Removal","< 0"
"391",-56.097,-15.563,"Cuiabá",-0.000465601971229954,"Removal","< 0"
"392",-56.096,-15.561,"Cuiabá",-0.000488705609289076,"Removal","< 0"
"393",-56.094,-15.551,"Cuiabá",-0.000486729191873989,"Removal","< 0"
"394",-56.09,-15.548,"Cuiabá",-0.000241517127753871,"Removal","< 0"
"395",-56.085,-15.541,"Cuiabá",-0.000469827415358761,"Removal","< 0"
"396",-56.083,-15.64,"Várzea Grande",-0.000435206034432408,"Removal","< 0"
"397",-56.081,-15.671,"Várzea Grande",0.000404362453031664,"Emission","< 1"
"398",-56.07348724,-14.4256518,"Diamantino",0.000873969919868398,"Emission","< 1"
"399",-56.069,-15.678,"Cuiabá",0.00586361715117866,"Emission","< 1"
"400",-56.069,-15.559,"Cuiabá",-0.000393701268715578,"Removal","< 0"
"401",-56.065,-15.633,"Cuiabá",-0.000465240297207138,"Removal","< 0"
"402",-56.065,-15.535,"Cuiabá",-0.000478278303616375,"Removal","< 0"
"403",-56.063,-15.657,"Cuiabá",-0.000474052859487568,"Removal","< 0"
"404",-56.06156573,-11.65793207,"Porto Dos Gaúchos",-0.000495180080131603,"Removal","< 0"
"405",-56.061,-15.645,"Cuiabá",-0.000469827415358761,"Removal","< 0"
"406",-56.0586592109905,-12.0170262136988,"Ipiranga Do Norte",0.013612268531739,"Emission","< 1"
"407",-56.058,-15.644,"Cuiabá",-0.00049190876854801,"Removal","< 0"
"408",-56.05622691,-13.7028233,"Nova Mutum",-0.000495180080131603,"Removal","< 0"
"409",-56.055,-15.657,"Cuiabá",-0.000486729191873989,"Removal","< 0"
"410",-56.054,-15.642,"Cuiabá",-0.000486729191873989,"Removal","< 0"
"411",-56.05,-15.574,"Cuiabá",-0.000280227648159715,"Removal","< 0"
"412",-56.046,-15.587,"Cuiabá",0.000113215722091936,"Emission","< 1"
"413",-56.0417279038091,-10.7002790700777,"Nova Canaã Do Norte",0.0212533573155653,"Emission","< 1"
"414",-56.03911787,-12.20048026,"Ipiranga Do Norte",-0.000495180080131603,"Removal","< 0"
"415",-56.039,-15.607,"Cuiabá",-0.000486729191873989,"Removal","< 0"
"416",-56.038,-15.572,"Cuiabá",0.000383303384712288,"Emission","< 1"
"417",-56.038,-15.541,"Cuiabá",-0.000452925638843533,"Removal","< 0"
"418",-56.036,-15.603,"Cuiabá",-0.000435955710003647,"Removal","< 0"
"419",-56.031,-15.62,"Cuiabá",-0.000486729191873989,"Removal","< 0"
"420",-56.031,-15.616,"Cuiabá",-0.000297333881648917,"Removal","< 0"
"421",-56.031,-15.58,"Cuiabá",-0.000452925638843533,"Removal","< 0"
"422",-56.0295214448918,-16.8103791889482,"Barão De Melgaço",0.181312389441934,"Emission","< 1"
"423",-56.029,-15.552,"Cuiabá",-0.000469827415358761,"Removal","< 0"
"424",-56.027,-15.622,"Cuiabá",-0.000478278303616375,"Removal","< 0"
"425",-56.027,-15.54,"Cuiabá",-0.000359897715685123,"Removal","< 0"
"426",-56.024,-28.643,"São Borja",0.000859824438722255,"Emission","< 1"
"427",-56.024,-15.561,"Cuiabá",-0.000402152156973192,"Removal","< 0"
"428",-56.018,-15.639,"Cuiabá",-0.000469827415358761,"Removal","< 0"
"429",-56.0162983565253,-3.66721510072933,"Aveiro",-0.0011371548043604,"Removal","< 0"
"430",-56.014,-15.621,"Cuiabá",-0.000452925638843533,"Removal","< 0"
"431",-56.004,-15.627,"Cuiabá",0.00026587692932625,"Emission","< 1"
"432",-56.0034670778621,-5.13022512626299,"Trairão",0.00882210030446433,"Emission","< 1"
"433",-56.000651,-4.242131,"Itaituba",0.000160839505293662,"Emission","< 1"
"434",-55.99952738,-14.29005935,"Diamantino",0.000872069919868398,"Emission","< 1"
"435",-55.9961416816383,-21.5416404530566,"Guia Lopes Da Laguna",0.0173030698336729,"Emission","< 1"
"436",-55.994,-15.635,"Cuiabá",-0.000486729191873989,"Removal","< 0"
"437",-55.9723067405879,-22.2055916807531,"Antônio João",0.0139360771962061,"Emission","< 1"
"438",-55.952,-22.178,"Antônio João",-0.000485263916893838,"Removal","< 0"
"439",-55.945,-15.63,"Cuiabá",-0.000486729191873989,"Removal","< 0"
"440",-55.936586485309,-14.7643432853458,"Rosário Oeste",0.0456754440311884,"Emission","< 1"
"441",-55.9296624,-15.6885279,"Cuiabá",-0.000495180080131603,"Removal","< 0"
"442",-55.912,-13.045,"Lucas Do Rio Verde",0.000159150388911546,"Emission","< 1"
"443",-55.9014588206331,-21.1008154754096,"Nioaque",0.0523411454394607,"Emission","< 1"
"444",-55.9,-13.102,"Lucas Do Rio Verde",-0.000132541560625447,"Removal","< 0"
"445",-55.8769901395673,-19.7462110263331,"Aquidauana",0.156341632223186,"Emission","< 1"
"446",-55.869,-1.768,"Oriximiná",-0.000291451584916449,"Removal","< 0"
"447",-55.8688886,-10.69342013,"Nova Canaã Do Norte",0.000707769919868398,"Emission","< 1"
"448",-55.8357156747354,-29.7639550484666,"Alegrete",0.149589733726733,"Emission","< 1"
"449",-55.8341592421538,-10.1063830854303,"Carlinda",-0.000297723974760142,"Removal","< 0"
"450",-55.828,-21.153,"Nioaque",-0.000351378675102851,"Removal","< 0"
"451",-55.8124790161448,-14.3769706363232,"Nobres",0.0217744854782666,"Emission","< 1"
"452",-55.798,-20.482,"Anastácio",-0.000329569931212234,"Removal","< 0"
"453",-55.7972815403226,-28.7463922247626,"São Borja",0.0531731260824646,"Emission","< 1"
"454",-55.788,-20.486,"Anastácio",-0.000155304437061278,"Removal","< 0"
"455",-55.783711,-14.87336,"Chapada Dos Guimarães",0.0865107549417351,"Emission","< 1"
"456",-55.774961683944,-29.0661902096133,"Maçambará",0.00078883681445763,"Emission","< 1"
"457",-55.7720689315029,-20.6962443453238,"Anastácio",0.0368190680114607,"Emission","< 1"
"458",-55.772,-12.542,"Sorriso",-0.000413465442866449,"Removal","< 0"
"459",-55.765,-12.546,"Sorriso",-0.000435683100705015,"Removal","< 0"
"460",-55.753,-29.787,"Alegrete",0.000859142915475673,"Emission","< 1"
"461",-55.7515598929604,-15.6726981444591,"Cuiabá",0.0418976266769224,"Emission","< 1"
"462",-55.73589302,-12.98963571,"Sorriso",-0.000495180080131603,"Removal","< 0"
"463",-55.71954645,-15.52922004,"Cuiabá",-0.000495180080131603,"Removal","< 0"
"464",-55.71,-12.538,"Sorriso",-0.000119320009641761,"Removal","< 0"
"465",-55.702,-12.538,"Sorriso",-0.000455379122531228,"Removal","< 0"
"466",-55.7,-22.502,"Ponta Porã",0.000393526233411014,"Emission","< 1"
"467",-55.6813754869648,-12.737310035227,"Sorriso",0.150551411224335,"Emission","< 1"
"468",-55.6748651149303,-0.169634777164337,"Óbidos",0.00582508119821325,"Emission","< 1"
"469",-55.653,-22.514,"Ponta Porã",-0.000127361983951426,"Removal","< 0"
"470",-55.64206281,-10.03090323,"Carlinda",-0.000495180080131603,"Removal","< 0"
"471",-55.6120263639802,-8.06227659667582,"Novo Progresso",0.0260103896126933,"Emission","< 1"
"472",-55.5898112714198,-11.1109917887982,"Itaúba",0.0157566111965912,"Emission","< 1"
"473",-55.58682519,-11.9861854,"Sinop",-0.000495180080131603,"Removal","< 0"
"474",-55.586109,-11.885001,"Sinop",0.0115516244804144,"Emission","< 1"
"475",-55.583278380589,-22.2014922972773,"Ponta Porã",0.0992602235469591,"Emission","< 1"
"476",-55.5621895866363,-30.7384374417626,"Sant'ana Do Livramento",0.111320336119038,"Emission","< 1"
"477",-55.5569060457938,-29.4283797077057,"Manoel Viana",0.0286010627171413,"Emission","< 1"
"478",-55.552146467588,-15.1210090527657,"Chapada Dos Guimarães",0.0459905747084651,"Emission","< 1"
"479",-55.5375015717355,-28.2334745153141,"Garruchos",0.0133307183507232,"Emission","< 1"
"480",-55.52905238,-10.72052371,"Colíder",-0.000495180080131603,"Removal","< 0"
"481",-55.52808215,-12.65858801,"Vera",-6.29800801316025e-05,"Removal","< 0"
"482",-55.525,-23.284,"Coronel Sapucaia",-0.000391793003625149,"Removal","< 0"
"483",-55.52,-23.284,"Coronel Sapucaia",-0.000453845695226419,"Removal","< 0"
"484",-55.5194,-1.9086,"Óbidos",-0.000382179269758658,"Removal","< 0"
"485",-55.518,-30.878,"Sant'ana Do Livramento",0.000909848245021356,"Emission","< 1"
"486",-55.5015190388979,-11.7108541224626,"Sinop",0.0185878526933877,"Emission","< 1"
"487",-55.4997236,-10.7044195,"Colíder",-0.000495180080131603,"Removal","< 0"
"488",-55.471,-10.78,"Colíder",0.000306086800874574,"Emission","< 1"
"489",-55.4685840781738,-10.6309848756424,"Colíder",0.0338687336033913,"Emission","< 1"
"490",-55.4531828013917,-22.907550922211,"Aral Moreira",0.0458311058876907,"Emission","< 1"
"491",-55.4471410467824,-16.5358277370416,"Santo Antônio Do Leverger",0.0869742094690369,"Emission","< 1"
"492",-55.43162677,-11.81024029,"Sinop",-0.000495180080131603,"Removal","< 0"
"493",-55.43,-23.87,"Paranhos",-0.000246764856752551,"Removal","< 0"
"494",-55.4260361862097,-28.4939553989514,"Santo Antônio Das Missões",0.0382839490984151,"Emission","< 1"
"495",-55.42292841,-10.33548979,"Nova Guarita",-0.000495180080131603,"Removal","< 0"
"496",-55.41836989,-15.4995379,"Chapada Dos Guimarães",-0.000495180080131603,"Removal","< 0"
"497",-55.4036807909991,-9.7521550728686,"Novo Mundo",0.000660142740825093,"Emission","< 1"
"498",-55.3968294302714,-21.5433529409263,"Maracaju",0.137670326638473,"Emission","< 1"
"499",-55.3811900119081,-23.3475162322726,"Coronel Sapucaia",0.0178320832520769,"Emission","< 1"
"500",-55.3624328652711,-20.600437498932,"Dois Irmãos Do Buriti",0.0370543262699256,"Emission","< 1"
"501",-55.3533014902886,-23.7099883153041,"Paranhos",0.0162479400298463,"Emission","< 1"
"502",-55.3426330817805,-12.4418593953169,"Vera",0.0341468356680905,"Emission","< 1"
"503",-55.3381782780747,-10.2938631444062,"Nova Guarita",0.00939151068257833,"Emission","< 1"
"504",-55.33695196,-11.81337168,"Sinop",-0.000495180080131603,"Removal","< 0"
"505",-55.30703375,-12.33630582,"Vera",-0.000495180080131603,"Removal","< 0"
"506",-55.2940940951511,-13.8330351568984,"Santa Rita Do Trivelato",0.0152210652946879,"Emission","< 1"
"507",-55.27178859,-9.95061925,"Novo Mundo",-0.000495180080131603,"Removal","< 0"
"508",-55.2673254328078,-28.8099979660883,"Itacurubi",0.0210597930799415,"Emission","< 1"
"509",-55.2473397497685,-28.2038489073064,"São Nicolau",0.00914418907998376,"Emission","< 1"
"510",-55.2436163342975,-28.0657090029647,"Pirapó",0.00863361263340009,"Emission","< 1"
"511",-55.2384554709095,-2.67933629374346,"Santarém",0.0249774596197761,"Emission","< 1"
"512",-55.235,-23.111,"Amambai",-0.000468123607242307,"Removal","< 0"
"513",-55.231,-23.116,"Amambai",-0.000376867644525009,"Removal","< 0"
"514",-55.212,-23.126,"Amambai",-0.000387022340899077,"Removal","< 0"
"515",-55.2107400755368,-4.24104251414216,"Rurópolis",0.0141646959288147,"Emission","< 1"
"516",-55.1587830177564,-29.0685034664221,"Unistalda",0.000724359983988788,"Emission","< 1"
"517",-55.156,-23.076,"Amambai",-0.000341496588027415,"Removal","< 0"
"518",-55.15,-21.614,"Maracaju",-0.000297436110135905,"Removal","< 0"
"519",-55.1444087596941,-27.9337871670951,"Porto Xavier",0.00429732576721726,"Emission","< 1"
"520",-55.142,-15.56,"Campo Verde",-6.45936929412459e-05,"Removal","< 0"
"521",-55.14,-29.549,"São Francisco De Assis",-0.000405900534829392,"Removal","< 0"
"522",-55.1320952283744,-22.6775156008329,"Laguna Carapã",0.0363426651603391,"Emission","< 1"
"523",-55.1312916631896,-29.4477896105891,"São Francisco De Assis",0.0471799430224505,"Emission","< 1"
"524",-55.12729583,-15.27784353,"Campo Verde",0.0024457199198684,"Emission","< 1"
"525",-55.113491235315,-1.84574285190855,"Curuá",-0.000275421075234086,"Removal","< 0"
"526",-55.113362549505,-15.9056025142141,"Jaciara",0.0522441707421943,"Emission","< 1"
"527",-55.112965072623,-30.325934868748,"Rosário Do Sul",0.0840596302142559,"Emission","< 1"
"528",-55.0886744421531,-28.0591294301073,"Roque Gonzales",0.00806506564015984,"Emission","< 1"
"529",-55.0796287086792,-28.2046908234209,"Dezesseis De Novembro",0.00426922259892691,"Emission","< 1"
"530",-55.0573148140826,-19.8075529823572,"Corguinho",0.0389530866578215,"Emission","< 1"
"531",-55.0508129054548,-14.7844769739395,"Nova Brasilândia",0.0406735362163889,"Emission","< 1"
"532",-55.04777975,-10.23735531,"Peixoto De Azevedo",-0.000495180080131603,"Removal","< 0"
"533",-55.0476982982042,-11.4481546657286,"Cláudia",0.0154101728148514,"Emission","< 1"
"534",-55.0428697702921,-18.8136162499805,"Rio Verde De Mato Grosso",0.101825885416824,"Emission","< 1"
"535",-55.0391554963246,-0.604682709063287,"Alenquer",0.027928274249891,"Emission","< 1"
"536",-55.032,-23.642,"Tacuru",-0.000364191312138588,"Removal","< 0"
"537",-55.0293939887002,-23.879135827057,"Sete Quedas",0.00761865036980097,"Emission","< 1"
"538",-55.0240917757277,-20.4473990323833,"Terenos",0.0496238129200077,"Emission","< 1"
"539",-55.02292858,-15.65189959,"Jaciara",-0.000495180080131603,"Removal","< 0"
"540",-54.9928497106058,-3.19112745148884,"Belterra",0.00297160091822304,"Emission","< 1"
"541",-54.9904009584863,-23.6493254357884,"Tacuru",0.0292986972359153,"Emission","< 1"
"542",-54.9840620010531,-10.5125623263105,"Terra Nova Do Norte",0.0213358141341387,"Emission","< 1"
"543",-54.9752912420712,-27.9887994925537,"São Paulo Das Missões",0.00535274497723694,"Emission","< 1"
"544",-54.9713888499826,-28.6617476093405,"Bossoroca",0.0360030476849698,"Emission","< 1"
"545",-54.9681730243962,-23.1578083807907,"Amambai",0.0753117996991575,"Emission","< 1"
"546",-54.96357857,-10.18881209,"Matupá",-0.000495180080131603,"Removal","< 0"
"547",-54.9629600211274,-19.4469037529742,"Rio Negro",0.0256867144067089,"Emission","< 1"
"548",-54.9581185167835,-15.3448363468101,"Campo Verde",0.0977505101793723,"Emission","< 1"
"549",-54.9569097965323,-27.8519819122445,"Porto Lucena",0.00372149850685164,"Emission","< 1"
"550",-54.9551986,-16.06879941,"Jaciara",-0.000495180080131603,"Removal","< 0"
"551",-54.942111972107,-21.093871213077,"Sidrolândia",0.0954796966615373,"Emission","< 1"
"552",-54.926601,-22.2019,"Dourados",0.00405574872492421,"Emission","< 1"
"553",-54.915,-30.23,"Rosário Do Sul",9.95852571603004e-05,"Emission","< 1"
"554",-54.91,-9.933,"Guarantã Do Norte",0.000383030775413655,"Emission","< 1"
"555",-54.9066691571384,-10.9189198759927,"Nova Santa Helena",0.0121400280730814,"Emission","< 1"
"556",-54.9042249049414,-16.182878614926,"Juscimeira",0.0513184260815609,"Emission","< 1"
"557",-54.8996958927622,-11.9346633922556,"Santa Carmem",0.0123047070861616,"Emission","< 1"
"558",-54.895,-30.267,"Rosário Do Sul",-3.95817897916951e-05,"Removal","< 0"
"559",-54.8949139989754,-28.1234865063989,"São Pedro Do Butiá",0.00186404975915418,"Emission","< 1"
"560",-54.8909210543705,-28.4184655856031,"São Luiz Gonzaga",0.0355544193009829,"Emission","< 1"
"561",-54.8896632058395,-27.7543111945772,"Porto Vera Cruz",0.0019341972562781,"Emission","< 1"
"562",-54.8734925582088,-22.005378838032,"Itaporã",0.0436751794382827,"Emission","< 1"
"563",-54.863,-11.506,"Cláudia",-3.4879279390281e-05,"Removal","< 0"
"564",-54.847,-18.905,"Rio Verde De Mato Grosso",-0.00045231226792161,"Removal","< 0"
"565",-54.842,-29.876,"Cacequi",4.03608870323454e-05,"Emission","< 1"
"566",-54.838882663078,-22.1448642358792,"Itaporã",0.115363579759301,"Emission","< 1"
"567",-54.836,-22.606,"Caarapó",-0.000229113404666083,"Removal","< 0"
"568",-54.8343944235719,-28.2548960743804,"Rolador",0.00713030198545221,"Emission","< 1"
"569",-54.8341045985162,-27.9629973588181,"Campina Das Missões",0.00595288698398317,"Emission","< 1"
"570",-54.8316732805059,-28.0997426989843,"Salvador Das Missões",0.00140212513638772,"Emission","< 1"
"571",-54.8215406005027,-29.4033390616535,"Nova Esperança Do Sul",0.00366349408203288,"Emission","< 1"
"572",-54.82,-22.249,"Dourados",0.00185103184855077,"Emission","< 1"
"573",-54.808,-18.897,"Rio Verde De Mato Grosso",-0.000465056752632689,"Removal","< 0"
"574",-54.8028095993529,-29.920427797227,"Cacequi",0.0427709011287771,"Emission","< 1"
"575",-54.8027572934351,-22.5883119305318,"Caarapó",0.0538239977555241,"Emission","< 1"
"576",-54.8,-22.246,"Dourados",0.00181620601065044,"Emission","< 1"
"577",-54.799,-22.28,"Dourados",0.000869774678122349,"Emission","< 1"
"578",-54.7962654101527,-29.1272001788774,"Santiago",0.0507674982061454,"Emission","< 1"
"579",-54.795,-22.204,"Dourados",0.000167805734143135,"Emission","< 1"
"580",-54.794,-22.077,"Itaporã",-0.000437114299522836,"Removal","< 0"
"581",-54.794,-22.076,"Itaporã",-0.000469759263034103,"Removal","< 0"
"582",-54.79306,-2.422423,"Santarém",0.0354799533385494,"Emission","< 1"
"583",-54.78982516,-10.8716804,"Nova Santa Helena",-0.000495180080131603,"Removal","< 0"
"584",-54.7815296533861,-27.6535133524297,"Alecrim",0.00442085231631427,"Emission","< 1"
"585",-54.78002184,-11.39587795,"Cláudia",-0.000495180080131603,"Removal","< 0"
"586",-54.7765279950109,-15.6563153944882,"Dom Aquino",0.0364799228401031,"Emission","< 1"
"587",-54.7595198854183,-12.9964263822447,"Nova Ubiratã",0.00277894347869353,"Emission","< 1"
"588",-54.758,-18.49,"Coxim",-0.000339929084560277,"Removal","< 0"
"589",-54.7542237074271,-29.7095826123769,"São Vicente Do Sul",0.0240681394878914,"Emission","< 1"
"590",-54.74143408,-17.17435303,"Itiquira",-0.000495180080131603,"Removal","< 0"
"591",-54.7403043414856,-15.9540734965374,"São Pedro Da Cipa",0.00496023222840051,"Emission","< 1"
"592",-54.7394080367181,-28.1309704951623,"Cerro Largo",0.001654898542844,"Emission","< 1"
"593",-54.7355135846836,-19.9787141190441,"Rochedo",0.0174783443674803,"Emission","< 1"
"594",-54.7272,-2.4156,"Santarém",-0.000168069225178078,"Removal","< 0"
"595",-54.724803,-16.584292,"Rondonópolis",0.00308834741802203,"Emission","< 1"
"596",-54.7194777987048,-27.9337138386356,"Cândido Godói",0.007648654279133,"Emission","< 1"
"597",-54.717,-20.48,"Campo Grande",0.00352425022779329,"Emission","< 1"
"598",-54.71310792,-16.05822336,"Juscimeira",-0.000495180080131603,"Removal","< 0"
"599",-54.710999866082,-27.7983624503851,"Santo Cristo",0.0122722641208041,"Emission","< 1"
"600",-54.70605583,-16.44011462,"Rondonópolis",-6.23800801316025e-05,"Removal","< 0"
"601",-54.694,-22.175,"Dourados",-0.000466624256099827,"Removal","< 0"
"602",-54.691,-30.987,"Dom Pedrito",0.00141226718240143,"Emission","< 1"
"603",-54.6847934987379,-16.5674851376944,"Rondonópolis",0.0653456828446911,"Emission","< 1"
"604",-54.673988,-20.469998,"Campo Grande",0.0403418508766453,"Emission","< 1"
"605",-54.6739675350166,-14.588782371004,"Planalto Da Serra",0.0346314381814274,"Emission","< 1"
"606",-54.6739131485624,-18.2811956227557,"Coxim",0.125026979739498,"Emission","< 1"
"607",-54.669,-16.488,"Rondonópolis",0.00637280228497144,"Emission","< 1"
"608",-54.6651213499646,-31.0571078382179,"Dom Pedrito",0.0934568371780917,"Emission","< 1"
"609",-54.663,-20.555,"Campo Grande",0.0335803688780345,"Emission","< 1"
"610",-54.65723615,-17.13194917,"Itiquira",-0.000495180080131603,"Removal","< 0"
"611",-54.6568537467841,-27.5943109043379,"Porto Mauá",0.00147522686352723,"Emission","< 1"
"612",-54.656566530779,-28.2430187002857,"Mato Queimado",0.00329083316273632,"Emission","< 1"
"613",-54.655262079953,-28.3353346888022,"Caibaté",0.00810364256004777,"Emission","< 1"
"614",-54.65462995,-17.52983524,"Sonora",-0.000495180080131603,"Removal","< 0"
"615",-54.6478286145536,-29.4584645936327,"Jaguari",0.0128266025492523,"Emission","< 1"
"616",-54.646549059671,-28.0381534941601,"Ubiretama",0.00165818153321686,"Emission","< 1"
"617",-54.6211055396438,-9.77626866971787,"Guarantã Do Norte",0.029631813718644,"Emission","< 1"
"618",-54.614,-22.858,"Juti",-0.000464477457873094,"Removal","< 0"
"619",-54.60722988,-16.520438,"Rondonópolis",-0.000495180080131603,"Removal","< 0"
"620",-54.5973205925765,-17.3338878158101,"Itiquira",0.11521796219238,"Emission","< 1"
"621",-54.597,-25.503,"Foz Do Iguaçu",0.00129068343521124,"Emission","< 1"
"622",-54.596,-25.561,NA,0.00108166025548462,"Emission","< 1"
"623",-54.595,-25.534,"Foz Do Iguaçu",0.00160357075771693,"Emission","< 1"
"624",-54.5948485,-16.80776393,"Pedra Preta",-0.000495180080131603,"Removal","< 0"
"625",-54.593,-25.555,"Foz Do Iguaçu",0.00603871958949706,"Emission","< 1"
"626",-54.5877756958852,-22.0139824888411,"Douradina",0.00922451391155016,"Emission","< 1"
"627",-54.5864523902175,-28.167954626974,"Guarani Das Missões",0.00459501515037897,"Emission","< 1"
"628",-54.58449453,-16.35258698,"Rondonópolis",-0.000495180080131603,"Removal","< 0"
"629",-54.5823988837051,-28.959292625585,"Capão Do Cipó",0.0340008940955402,"Emission","< 1"
"630",-54.5751531119151,-3.07044000442739,"Santarém",0.0100815359147968,"Emission","< 1"
"631",-54.56626512,-16.7688485,"Pedra Preta",-0.000495180080131603,"Removal","< 0"
"632",-54.5661188,-10.86257575,"Marcelândia",-0.000495180080131603,"Removal","< 0"
"633",-54.566,-19.384,"São Gabriel Do Oeste",0.000145519923979911,"Emission","< 1"
"634",-54.561,-18.101,"Pedro Gomes",-0.000478789446051311,"Removal","< 0"
"635",-54.5578125731108,-21.6961399807075,"Rio Brilhante",0.102710911309316,"Emission","< 1"
"636",-54.556,-23.689,"Iguatemi",-0.000402697375570458,"Removal","< 0"
"637",-54.5546081364002,-27.7065112725116,"Tuparendi",0.0089626391473837,"Emission","< 1"
"638",-54.5383006653541,-23.4342040678327,"Iguatemi",0.0544241563609177,"Emission","< 1"
"639",-54.5376205377718,-23.8095522735643,"Japorã",0.00341161084627025,"Emission","< 1"
"640",-54.5367997896651,-28.0288282615039,"Senador Salgado Filho",0.0038871902484789,"Emission","< 1"
"641",-54.536,-25.476,"Foz Do Iguaçu",2.46177000363067e-05,"Emission","< 1"
"642",-54.5356613681737,-27.5467004869502,"Novo Machado",0.00444802683203059,"Emission","< 1"
"643",-54.53233283,-17.03890864,"Pedra Preta",-0.000495180080131603,"Removal","< 0"
"644",-54.528,-21.805,"Rio Brilhante",-0.000435342339081724,"Removal","< 0"
"645",-54.523,-22.362,"Fátima Do Sul",-0.000355467814582341,"Removal","< 0"
"646",-54.5216275447968,-28.6727989162005,"São Miguel Das Missões",0.0359991349837514,"Emission","< 1"
"647",-54.512,-11.105,"Marcelândia",-0.00048257190006984,"Removal","< 0"
"648",-54.504,-27.879,"Santa Rosa",-0.00038429624791275,"Removal","< 0"
"649",-54.500659026607,-3.88982415397448,"Placas",0.00575534470017298,"Emission","< 1"
"650",-54.4970044428078,-27.8644152166233,"Santa Rosa",0.012873659621475,"Emission","< 1"
"651",-54.489444,-25.594167,"Foz Do Iguaçu",0.0483015783287089,"Emission","< 1"
"652",-54.4888891593795,-22.7762826649784,"Juti",0.0204263006844561,"Emission","< 1"
"653",-54.4827239441663,-19.1691455702419,"São Gabriel Do Oeste",0.103474795401495,"Emission","< 1"
"654",-54.4823890682478,-25.470902866012,"Santa Terezinha De Itaipu",0.0167509604081424,"Emission","< 1"
"655",-54.48110232,-16.80793928,"Pedra Preta",-0.000495180080131603,"Removal","< 0"
"656",-54.473,-16.627,"Pedra Preta",-0.00043288885539403,"Removal","< 0"
"657",-54.467894475123,-29.5375374105721,"Mata",0.00500742800451974,"Emission","< 1"
"658",-54.4636498966351,-28.3817226826844,"Vitória Das Missões",0.00416593784702063,"Emission","< 1"
"659",-54.4601036235878,-28.1451500701692,"Sete De Setembro",0.00117335020504978,"Emission","< 1"
"660",-54.4397271696476,-22.3373268089478,"Dourados",0.0095840089331588,"Emission","< 1"
"661",-54.43937359,-16.28771221,"Rondonópolis",-0.000495180080131603,"Removal","< 0"
"662",-54.4323888277525,-17.6486399346019,"Sonora",0.0702738479372844,"Emission","< 1"
"663",-54.4309926111385,-27.6393583891787,"Tucunduva",0.00774133240894293,"Emission","< 1"
"664",-54.4273731737574,-25.456644690346,"Santa Terezinha De Itaipu",0.013765273996452,"Emission","< 1"
"665",-54.4248716666413,-22.4672182335586,"Vicentina",0.0113898697609448,"Emission","< 1"
"666",-54.41361499,-17.06236174,"Pedra Preta",-0.000495180080131603,"Removal","< 0"
"667",-54.406,-25.408,"Santa Terezinha De Itaipu",2.08693221801069e-05,"Emission","< 1"
"668",-54.39448615,-16.28558252,"Poxoréo",-0.000495180080131603,"Removal","< 0"
"669",-54.3665818744681,-27.4878956842971,"Doutor Maurício Cardoso",0.00288771604792234,"Emission","< 1"
"670",-54.3654252153218,-30.3052667337779,"São Gabriel",0.0979957794582479,"Emission","< 1"
"671",-54.3595697023837,-25.1550118271706,"Itaipulândia",0.0125024251716451,"Emission","< 1"
"672",-54.3568742191394,-10.0139757599359,"Matupá",0.0120353511722978,"Emission","< 1"
"673",-54.3530489592426,-1.07440016717301,"Monte Alegre",0.0144936753521445,"Emission","< 1"
"674",-54.3482973655232,-20.2272336403119,"Jaraguari",0.0457904684932306,"Emission","< 1"
"675",-54.3391532093931,-17.9143098929874,"Pedro Gomes",0.0492988507491954,"Emission","< 1"
"676",-54.32817101,-15.71950234,"Poxoréo",-0.000495180080131603,"Removal","< 0"
"677",-54.318,-24.854,"Santa Helena",0.000206379949899662,"Emission","< 1"
"678",-54.3164472844716,-11.5276759969216,"União Do Sul",0.00857060364027228,"Emission","< 1"
"679",-54.313,-15.549,"Primavera Do Leste",0.00134997595766386,"Emission","< 1"
"680",-54.308,-30.335,"São Gabriel",0.000204880598757183,"Emission","< 1"
"681",-54.3062403121828,-24.8872746295342,"Santa Helena",0.0168100960900705,"Emission","< 1"
"682",-54.3055230014962,-19.8056309409195,"Bandeirantes",0.0437347765775691,"Emission","< 1"
"683",-54.303,-22.488,"Jateí",-0.000468123607242307,"Removal","< 0"
"684",-54.302,-25.123,"Missal",-0.000349265953038447,"Removal","< 0"
"685",-54.3018723309496,-28.4595493617085,"Eugênio De Castro",0.0149434914128491,"Emission","< 1"
"686",-54.299844,-2.817134,"Santarém",0.0265584331374684,"Emission","< 1"
"687",-54.2991096115323,-28.0300027280751,"Giruá",0.0306906117439848,"Emission","< 1"
"688",-54.298773968311,-29.4704255785849,"Toropi",-0.000254808735207288,"Removal","< 0"
"689",-54.298703089383,-27.5902808714549,"Horizontina",0.00587718755608159,"Emission","< 1"
"690",-54.2980465292173,-29.2914830850651,"Jari",0.00147169290750086,"Emission","< 1"
"691",-54.2977480672625,-28.250488810239,"Santo Ângelo",0.0181990614009667,"Emission","< 1"
"692",-54.296,-23.78,"Eldorado",-0.000428799715914539,"Removal","< 0"
"693",-54.287,-24.096,"Guaíra",0.000704709747800246,"Emission","< 1"
"694",-54.283,-28.316,"Santo Ângelo",0.000491392971620155,"Emission","< 1"
"695",-54.272,-28.288,"Santo Ângelo",-0.000394314639637502,"Removal","< 0"
"696",-54.2707902870489,-23.9419869470394,"Mundo Novo",0.00573871219672712,"Emission","< 1"
"697",-54.27033145,-15.69144882,"Poxoréo",-0.000495180080131603,"Removal","< 0"
"698",-54.268082283754,-16.4709557410201,"São José Do Povo",0.010863603268151,"Emission","< 1"
"699",-54.268,-25.333,"São Miguel Do Iguaçu",0.000242773291267128,"Emission","< 1"
"700",-54.2653585522083,-27.7315851800032,"Três De Maio",0.0152654591320409,"Emission","< 1"
"701",-54.2618469468895,-25.3882410082475,"São Miguel Do Iguaçu",0.0271500416549955,"Emission","< 1"
"702",-54.2526268595437,-24.6337870266301,"Pato Bragado",0.00598421159922224,"Emission","< 1"
"703",-54.2519374,-15.71288842,"Poxoréo",-0.000495180080131603,"Removal","< 0"
"704",-54.2494637609653,-20.9135843240394,"Campo Grande",0.104911583641096,"Emission","< 1"
"705",-54.2492077641728,-16.79517259148,"Pedra Preta",0.0571099851984787,"Emission","< 1"
"706",-54.2450235765186,-28.5655579473818,"Eugênio De Castro",0.0128205001022759,"Emission","< 1"
"707",-54.2412805516138,-25.0955715654692,"Missal",0.0075015794367114,"Emission","< 1"
"708",-54.2380032297696,-29.6113822589855,"São Pedro Do Sul",0.0158679317614076,"Emission","< 1"
"709",-54.2276656172601,-24.1915329558105,"Guaíra",0.0161900098574526,"Emission","< 1"
"710",-54.227111108387,-24.7114734620419,"Entre Rios Do Oeste",0.00526780100974396,"Emission","< 1"
"711",-54.2250910215198,-23.7382389856807,"Eldorado",0.0213891089970225,"Emission","< 1"
"712",-54.224,-23.065,"Naviraí",0.000185389033904944,"Emission","< 1"
"713",-54.2199543593322,-15.0966827539872,"Primavera Do Leste",0.122365964723846,"Emission","< 1"
"714",-54.2164443002466,-21.4910116521845,"Nova Alvorada Do Sul",0.0559759294839433,"Emission","< 1"
"715",-54.1924899032112,-22.4272452117537,"Glória De Dourados",0.0106198787553046,"Emission","< 1"
"716",-54.1860334132577,-24.4334079526889,"Mercedes",0.00607823709558042,"Emission","< 1"
"717",-54.186018785098,-15.8510061173384,"Poxoréo",0.0899440868953888,"Emission","< 1"
"718",-54.1848038624019,-11.9329012375014,"Feliz Natal",0.00500977457527259,"Emission","< 1"
"719",-54.1804448810154,-27.9011938680588,"Independência",0.0124834947709287,"Emission","< 1"
"720",-54.169623,-28.282503,"Santo Ângelo",-0.000337011008269969,"Removal","< 0"
"721",-54.1632332137995,-29.8134454096257,"Dilermando De Aguiar",-0.000107679061829856,"Removal","< 0"
"722",-54.1547960223896,-28.7665437769057,"Jóia",0.0320753013887205,"Emission","< 1"
"723",-54.1536058449451,-30.7720805498148,"Lavras Do Sul",0.0439477264463089,"Emission","< 1"
"724",-54.1520819472185,-22.1560907022644,"Deodápolis",0.0145645951399438,"Emission","< 1"
"725",-54.1391159865217,-31.6905554528918,"Aceguá",0.0169499153863007,"Emission","< 1"
"726",-54.1388863225019,-24.571758294073,"Marechal Cândido Rondon",0.02347479507572,"Emission","< 1"
"727",-54.1364725981392,-27.4875418443446,"Crissiumal",0.010328011241535,"Emission","< 1"
"728",-54.1254548580323,-27.5952623683416,"Nova Candelária",0.00215677315873426,"Emission","< 1"
"729",-54.1241266982111,-27.7383699953306,"São José Do Inhacorá",0.00333107793870146,"Emission","< 1"
"730",-54.1204122596184,-27.3693287043462,"Tiradentes Do Sul",0.00639687196436016,"Emission","< 1"
"731",-54.1195715221289,-24.8154720317237,"São José Das Palmeiras",0.00402216276733015,"Emission","< 1"
"732",-54.1191667963513,-23.3415683508301,"Itaquiraí",0.065730182594915,"Emission","< 1"
"733",-54.1089901635314,-13.6776540864373,"Paranatinga",0.149927021170241,"Emission","< 1"
"734",-54.101,-25.286,"Medianeira",0.000110625933754925,"Emission","< 1"
"735",-54.1003020244646,-24.9542118124118,"Diamante D'oeste",0.00821847800938853,"Emission","< 1"
"736",-54.0997661530024,-27.6748033155781,"Boa Vista Do Buricá",0.00480906120158829,"Emission","< 1"
"737",-54.0977176351426,-30.3710595279201,"Santa Margarida Do Sul",0.0216169800234769,"Emission","< 1"
"738",-54.0919207887126,-25.2631709630727,"Medianeira",0.008143843510826,"Emission","< 1"
"739",-54.079,-31.395,"Bagé",-0.000424124466442988,"Removal","< 0"
"740",-54.0760714483108,-25.0943619531087,"Ramilândia",0.00618558579899184,"Emission","< 1"
"741",-54.0654908840055,-29.3096403632454,"Quevedos",0.0152956614544138,"Emission","< 1"
"742",-54.0627792090778,-24.2087136159621,"Terra Roxa",0.0306004153143563,"Emission","< 1"
"743",-54.0603217883469,-28.4038679006452,"Coronel Barros",0.00382562603470595,"Emission","< 1"
"744",-54.059,-14.43,"Paranatinga",0.000571676410067486,"Emission","< 1"
"745",-54.0562082374864,-27.8135434051408,"Alegria",0.00492730054941252,"Emission","< 1"
"746",-54.0534156580906,-10.8862641170858,"Marcelândia",0.0403164805831675,"Emission","< 1"
"747",-54.049,-19.53,"Camapuã",-0.000314883105248398,"Removal","< 0"
"748",-54.041,-24.575,"Marechal Cândido Rondon",-0.000154827370788671,"Removal","< 0"
"749",-54.0343683505515,-28.1684838650639,"Catuípe",0.0151071843072312,"Emission","< 1"
"750",-54.0305505302094,-27.9025080301155,"Inhacorá",0.00300507368817897,"Emission","< 1"
"751",-54.029962505838,-25.4795093074341,"Serranópolis Do Iguaçu",0.000859809197080189,"Emission","< 1"
"752",-54.0256657412317,-23.0225380542412,"Naviraí",0.0823096709249441,"Emission","< 1"
"753",-54.0165197209629,-31.2364659513981,"Bagé",0.0656651601731633,"Emission","< 1"
"754",-54.0086834089041,-27.3284660976273,"Esperança Do Sul",0.00308196659554802,"Emission","< 1"
"755",-54.0072879185028,-28.5338684289092,"Augusto Pestana",0.0100712394260394,"Emission","< 1"
"756",-54.0034966561396,-29.0205151853595,"Tupanciretã",0.0717438205038056,"Emission","< 1"
"757",-53.994,-25.251,"Matelândia",-5.44389965671775e-05,"Removal","< 0"
"758",-53.9798954566561,-27.5742098386823,"Humaitá",0.00348770328725611,"Emission","< 1"
"759",-53.9765344297987,-24.5717419027967,"Quatro Pontes",0.00346372394902405,"Emission","< 1"
"760",-53.9585386969493,-24.4403550720897,"Nova Santa Rosa",0.00861658999994742,"Emission","< 1"
"761",-53.957309263778,-22.7067257851797,"Jateí",0.0381911726400575,"Emission","< 1"
"762",-53.9532376284176,-27.7290472341829,"São Martinho",0.00656508604291772,"Emission","< 1"
"763",-53.9531579912781,-27.6411263274913,"Sede Nova",0.00342830690896553,"Emission","< 1"
"764",-53.9488437154336,-23.902557959804,"Altônia",0.0121510317487744,"Emission","< 1"
"765",-53.9477318009393,-23.7385986467369,"São Jorge Do Patrocínio",0.00638207562894797,"Emission","< 1"
"766",-53.9292773303758,-27.4410159395004,"Três Passos",0.00880884333619111,"Emission","< 1"
"767",-53.9204604415903,-25.007371785153,"Vera Cruz Do Oeste",0.0109906509870999,"Emission","< 1"
"768",-53.917,-28.357,"Ijuí",-7.44076276920231e-05,"Removal","< 0"
"769",-53.91,-23.881,"Altônia",-2.26118609518093e-05,"Removal","< 0"
"770",-53.9098492129317,-27.9864932503598,"Chiapetta",0.0123236562884239,"Emission","< 1"
"771",-53.9096819063522,-24.7937951686936,"Ouro Verde Do Oeste",0.00951256128447295,"Emission","< 1"
"772",-53.9086932845686,-27.8210537216048,"São Valério Do Sul",0.00289322716475509,"Emission","< 1"
"773",-53.9060071224805,-25.3510464641824,"Matelândia",0.0107403765059998,"Emission","< 1"
"774",-53.8948825999283,-28.3204490217357,"Ijuí",0.0182341943842467,"Emission","< 1"
"775",-53.8938752587932,0.284988912442242,"Almeirim",0.00345267295799199,"Emission","< 1"
"776",-53.8922792973599,-27.2412871250127,"Derrubadas",0.00600871689276384,"Emission","< 1"
"777",-53.8907314490113,-24.906504172123,"São Pedro Do Iguaçu",0.0102182712242577,"Emission","< 1"
"778",-53.8894768178976,-31.447733389062,"Hulha Negra",0.0100609749747471,"Emission","< 1"
"779",-53.8866832078342,-6.48617176855341,"Altamira",0.0528572952817725,"Emission","< 1"
"780",-53.8862784595536,-29.4748081172664,"São Martinho Da Serra",0.0144759687182356,"Emission","< 1"
"781",-53.882,-25.047,"Vera Cruz Do Oeste",-0.000383273963042877,"Removal","< 0"
"782",-53.8789185825828,-30.3459939931326,"Vila Nova Do Sul",0.00875591828213509,"Emission","< 1"
"783",-53.8723267436865,-24.0948178211584,"Francisco Alves",0.00778183662366721,"Emission","< 1"
"784",-53.8695156320697,-19.3419254526577,"Camapuã",0.0837938885934829,"Emission","< 1"
"785",-53.8658024479816,-22.062443797085,"Angélica",0.0303240272381462,"Emission","< 1"
"786",-53.865,-25.12,"Céu Azul",-7.18178393550124e-05,"Removal","< 0"
"787",-53.8623513558615,-18.7444497755333,"Figueirão",0.075199122731689,"Emission","< 1"
"788",-53.855,-25.05,"Vera Cruz Do Oeste",-0.00033720299157395,"Removal","< 0"
"789",-53.852,-24.269,"Palotina",0.000466721830093895,"Emission","< 1"
"790",-53.8489269659586,-27.5452636631144,"Bom Progresso",0.00185303577383981,"Emission","< 1"
"791",-53.8375996546174,-28.6560860821374,"Boa Vista Do Cadeado",0.0174015032190713,"Emission","< 1"
"792",-53.8250368820059,-29.7849214049011,"Santa Maria",0.0342035557509491,"Emission","< 1"
"793",-53.8246458685651,-23.5388385801897,"Alto Paraíso",0.02076461072472,"Emission","< 1"
"794",-53.8246050410259,-27.6683283490948,"Campo Novo",0.00684800117401221,"Emission","< 1"
"795",-53.8240404254026,-24.2746361009445,"Palotina",0.0296094342371528,"Emission","< 1"
"796",-53.822,-29.729,"Santa Maria",0.0113993088378106,"Emission","< 1"
"797",-53.807336098532,-3.58361614429638,"Uruará",0.0155291436354202,"Emission","< 1"
"798",-53.7991427811173,-22.3714789600588,"Ivinhema",0.0398460231934516,"Emission","< 1"
"799",-53.7987820543388,-23.714390171179,"Esperança Nova",0.000889233716005664,"Emission","< 1"
"800",-53.7969735,-16.8454894,"Alto Garças",-0.000495180080131603,"Removal","< 0"
"801",-53.7916909090122,-24.4448536142835,"Maripá",0.0148406163015222,"Emission","< 1"
"802",-53.7818716657741,-22.6030329246406,"Novo Horizonte Do Sul",0.0146701862045214,"Emission","< 1"
"803",-53.781,-25.65,"Capanema",-9.62163715826395e-05,"Removal","< 0"
"804",-53.7778875469667,-24.7048606279856,"Toledo",0.0431274759703653,"Emission","< 1"
"805",-53.769,-22.133,"Angélica",-0.000463387020678563,"Removal","< 0"
"806",-53.7640955704394,-27.3725901206609,"Tenente Portela",0.00722794285381166,"Emission","< 1"
"807",-53.7636601774659,-27.205304969592,"Barra Do Guarita",0.00091966292839601,"Emission","< 1"
"808",-53.7620389009962,-29.576947807833,"Itaara",0.000249603143578752,"Emission","< 1"
"809",-53.7617863401564,-25.2462777022897,"Céu Azul",0.0214438103501848,"Emission","< 1"
"810",-53.7606014861618,-25.6105301822045,"Capanema",0.00787811590186686,"Emission","< 1"
"811",-53.7595767383039,-25.8497396509333,"Pérola D'oeste",0.00348236752967867,"Emission","< 1"
"812",-53.7558150718607,-27.9030809014165,"Santo Augusto",0.0129312229086656,"Emission","< 1"
"813",-53.754,-20.438,"Ribas Do Rio Pardo",-0.000354649986686443,"Removal","< 0"
"814",-53.752,-24.706,"Toledo",0.00123575266153675,"Emission","< 1"
"815",-53.7517789951173,-28.354318581118,"Bozano",0.00658531345360401,"Emission","< 1"
"816",-53.7491923463677,-18.2091524356866,"Alcinópolis",0.0635879491847485,"Emission","< 1"
"817",-53.7457195941121,-31.554434760551,"Candiota",0.0124659909870377,"Emission","< 1"
"818",-53.74557395646,-27.4904230045171,"Miraguaí",0.00166094872089641,"Emission","< 1"
"819",-53.745,-26.024,"Pranchita",-0.000427436669421375,"Removal","< 0"
"820",-53.7421549640511,-27.5811980597019,"Braga",0.00256442942294095,"Emission","< 1"
"821",-53.74,-24.747,"Toledo",-0.000364020931326943,"Removal","< 0"
"822",-53.739,-24.744,"Toledo",-0.000159052814917478,"Removal","< 0"
"823",-53.738,-24.709,"Toledo",0.000587555901712842,"Emission","< 1"
"824",-53.7371990902685,-28.2099312936232,"Ajuricaba",0.00818075355385752,"Emission","< 1"
"825",-53.734,-24.742,"Toledo",0.00181402513626138,"Emission","< 1"
"826",-53.73320111,-14.87263564,"Santo Antônio Do Leste",-0.000495180080131603,"Removal","< 0"
"827",-53.724,-24.713,"Toledo",-6.06408581110715e-05,"Removal","< 0"
"828",-53.7205563484108,-25.965626158046,"Pranchita",0.00723068678385898,"Emission","< 1"
"829",-53.7198322136792,-24.0451159749723,"Iporã",0.0165670092643629,"Emission","< 1"
"830",-53.7079891675455,-27.1143884768066,"Itapiranga",0.00491234104805095,"Emission","< 1"
"831",-53.7076974982304,-25.7371291030894,"Planalto",0.00762813977456493,"Emission","< 1"
"832",-53.7070634890498,-23.8307943456212,"Pérola",0.00742024980813054,"Emission","< 1"
"833",-53.7036744037855,-28.0761818999935,"Nova Ramada",0.00191080885077265,"Emission","< 1"
"834",-53.703,-24.032,"Iporã",-0.000285475377158395,"Removal","< 0"
"835",-53.7007508436272,-27.2657559014244,"Vista Gaúcha",0.00245876820385102,"Emission","< 1"
"836",-53.6913031092965,-31.8390032462951,"Pedras Altas",0.0173670430219569,"Emission","< 1"
"837",-53.688202,-29.711399,"Santa Maria",0.00103369995363466,"Emission","< 1"
"838",-53.6765106962335,-26.6627529680989,"Paraíso",0.00224211109589321,"Emission","< 1"
"839",-53.67145,-31.585375,"Candiota",0.0260729865865351,"Emission","< 1"
"840",-53.6699272708642,-14.8051500770965,"Santo Antônio Do Leste",0.0605441246750846,"Emission","< 1"
"841",-53.6601720601094,-2.12024527059752,"Prainha",0.0106652426507929,"Emission","< 1"
"842",-53.6524437649879,-29.2584352814607,"Júlio De Castilhos",0.0407785667679713,"Emission","< 1"
"843",-53.65,-28.632,"Cruz Alta",0.000791740266388737,"Emission","< 1"
"844",-53.6477457651714,-26.9890413889842,"Tunápolis",0.00141016696458323,"Emission","< 1"
"845",-53.6472309080263,-26.7682563269237,"Bandeirante",0.000926588356362084,"Emission","< 1"
"846",-53.6463510078552,-27.7977034286202,"Coronel Bicaco",0.0123865137896163,"Emission","< 1"
"847",-53.6343012991337,-27.2216845224649,"Pinheirinho Do Vale",0.00175460027407658,"Emission","< 1"
"848",-53.6342598590289,-25.881025027314,"Bela Vista Da Caroba",0.00130282335996695,"Emission","< 1"
"849",-53.631683987194,-27.5701382531953,"Redentora",0.00506707992091571,"Emission","< 1"
"850",-53.6290968059098,-26.0651465988298,"Santo Antônio Do Sudoeste",0.00891068258224074,"Emission","< 1"
"851",-53.6198236852682,-30.1757370288418,"São Sepé",0.0407785078322688,"Emission","< 1"
"852",-53.6180259404482,-26.9221723037161,"Santa Helena",0.000741068514135427,"Emission","< 1"
"853",-53.6166815210433,-26.856837990765,"Belmonte",0.000846290526750038,"Emission","< 1"
"854",-53.6114737204784,-26.43293594674,"Princesa",0.000557510548128564,"Emission","< 1"
"855",-53.6060153229709,-25.0366092547022,"Santa Tereza Do Oeste",0.0125675066905575,"Emission","< 1"
"856",-53.5939472408949,-10.1495150710014,"Peixoto De Azevedo",0.0285418976063913,"Emission","< 1"
"857",-53.5937319618651,-28.4538374308859,"Pejuçara",0.0117219016231447,"Emission","< 1"
"858",-53.5932872695505,-25.4695780586688,"Capitão Leônidas Marques",0.00799954335164772,"Emission","< 1"
"859",-53.5919529064527,-23.7357485044382,"Xambrê",0.00664855726364929,"Emission","< 1"
"860",-53.5916641463411,-27.0916071292338,"São João Do Oeste",0.00346366664438672,"Emission","< 1"
"861",-53.5900755526219,-16.3847467760887,"Guiratinga",0.0592382111397339,"Emission","< 1"
"862",-53.5878463669568,-27.3278161210403,"Palmitinho",0.00411210198540435,"Emission","< 1"
"863",-53.5856186597508,-23.3736091963711,"Icaraíma",0.0303535080172188,"Emission","< 1"
"864",-53.5845889627932,-24.4259937520367,"Assis Chateaubriand",0.0458853265789993,"Emission","< 1"
"865",-53.5836330616671,-29.5135708058325,"Ivorá",0.0023540705650552,"Emission","< 1"
"866",-53.5809391565788,-16.8882416234431,"Alto Garças",0.0557039694345185,"Emission","< 1"
"867",-53.578,-29.515,"Ivorá",-0.000482162986121891,"Removal","< 0"
"868",-53.5702024990969,-29.6333932580679,"Silveira Martins",0.00128568096386975,"Emission","< 1"
"869",-53.5693081860104,-26.5802536008918,"Guaraciaba",0.00578251783329149,"Emission","< 1"
"870",-53.56875,-20.672917,"Ribas Do Rio Pardo",0.0048594859038684,"Emission","< 1"
"871",-53.5625704069203,-28.7029746152653,"Cruz Alta",0.0419808117247596,"Emission","< 1"
"872",-53.561641664116,-23.9394127015085,"Cafezal Do Sul",0.00739698660823674,"Emission","< 1"
"873",-53.559279,-31.513208,"Pinheiro Machado",0.0597109865865351,"Emission","< 1"
"874",-53.5580465255639,-25.2579546562369,"Lindoeste",0.00780243971903686,"Emission","< 1"
"875",-53.553,-27.237,"Caiçara",-0.000369166431838635,"Removal","< 0"
"876",-53.5528680102748,-25.3847507921925,"Santa Lúcia",0.00333465517841039,"Emission","< 1"
"877",-53.5517614519636,-26.1621996780104,"Bom Jesus Do Sul",0.00468640998401389,"Emission","< 1"
"878",-53.5441898167294,-20.5966364871088,"Ribas Do Rio Pardo",0.234888851579981,"Emission","< 1"
"879",-53.5435280722063,-25.6744007904488,"Realeza",0.00773117524554857,"Emission","< 1"
"880",-53.5416962014828,-24.1660871295594,"Brasilândia Do Sul",0.0122835820163197,"Emission","< 1"
"881",-53.534,-24.374,"Assis Chateaubriand",0.000235072078580754,"Emission","< 1"
"882",-53.5308102847662,-26.4805862762545,"São José Do Cedro",0.00524467792102631,"Emission","< 1"
"883",-53.53,-25.758,"Realeza",-6.59606465713801e-06,"Removal","< 0"
"884",-53.5214690141972,-23.0424364816834,"Querência Do Norte",0.0345425779333459,"Emission","< 1"
"885",-53.5207901187129,-26.3334586650008,"Dionísio Cerqueira",0.00724763481389917,"Emission","< 1"
"886",-53.5202564452139,-26.2464143376369,"Barracão",0.00528724213106185,"Emission","< 1"
"887",-53.5187218692369,-27.5140632376285,"Erval Seco",0.0117580953225808,"Emission","< 1"
"888",-53.5121212291842,-26.7272369451984,"São Miguel Do Oeste",0.0036797470665477,"Emission","< 1"
"889",-53.5102920411937,-27.3248393237706,"Vista Alegre",0.00136028372958713,"Emission","< 1"
"890",-53.50930160978,-24.6460043681594,"Tupãssi",0.0131345456640499,"Emission","< 1"
"891",-53.5074266490586,-28.3295505334992,"Panambi",0.015096296847871,"Emission","< 1"
"892",-53.5062068090388,-29.9754614142379,"Formigueiro",0.00941746772325672,"Emission","< 1"
"893",-53.503,-24.935,"Cascavel",0.00202826125606551,"Emission","< 1"
"894",-53.501208,-25.000323,"Cascavel",0.00896701655414124,"Emission","< 1"
"895",-53.495961180417,-27.6761917926526,"Dois Irmãos Das Missões",0.00942446117555615,"Emission","< 1"
"896",-53.4939079607316,-28.1655028164338,"Condor",0.0139585854207355,"Emission","< 1"
"897",-53.4894144189802,-27.0004316348861,"Iporã Do Oeste",0.00347249939809694,"Emission","< 1"
"898",-53.488542,-25.542197,"Nova Prata Do Iguaçu",0.202319019131602,"Emission","< 1"
"899",-53.487,-24.917,"Cascavel",0.00584802938510348,"Emission","< 1"
"900",-53.4858288973421,-27.4084087298999,"Taquaruçu Do Sul",0.00160657503140282,"Emission","< 1"
"901",-53.485,-25.906,"Ampére",0.000114374311611125,"Emission","< 1"
"902",-53.4840206614218,-26.3983363630105,"Guarujá Do Sul",0.00184566346562336,"Emission","< 1"
"903",-53.4832217779515,-25.9166536718866,"Ampére",0.00691136660552062,"Emission","< 1"
"904",-53.4793005218537,-26.8584135946273,"Descanso",0.00403247714528762,"Emission","< 1"
"905",-53.4780258791804,-26.016007641587,"Pinhal De São Bento",0.00189640920718739,"Emission","< 1"
"906",-53.477940123104,-30.5934229150864,"Caçapava Do Sul",0.0458017647607744,"Emission","< 1"
"907",-53.4704779407295,-29.6420956865966,"São João Do Polêsine",0.000871546193859384,"Emission","< 1"
"908",-53.4669968061269,-17.4495040717356,"Alto Araguaia",0.0719721211536435,"Emission","< 1"
"909",-53.4665546571663,-27.2465520827325,"Caiçara",0.0044587755705787,"Emission","< 1"
"910",-53.4628834647431,-29.5579337496153,"Faxinal Do Soturno",0.00215575596284297,"Emission","< 1"
"911",-53.4615017858915,-28.8652400649076,"Boa Vista Do Incra",0.0146365384802673,"Emission","< 1"
"912",-53.461,-24.013,"Alto Piquiri",-0.000212007171176881,"Removal","< 0"
"913",-53.4563699422081,-15.9065644943324,"Tesouro",0.0446343727231102,"Emission","< 1"
"914",-53.4561769715579,-12.9959615848862,"Gaúcha Do Norte",0.0158660239824466,"Emission","< 1"
"915",-53.454,-25.078,"Cascavel",0.00467137949988007,"Emission","< 1"
"916",-53.4464970781198,-27.0992925844265,"Mondaí",0.00325722281815016,"Emission","< 1"
"917",-53.4310608702885,-22.6678259462412,"Taquarussu",0.0234583472915983,"Emission","< 1"
"918",-53.4250553572771,-26.6683578376879,"Barra Bonita",0.00116186704070236,"Emission","< 1"
"919",-53.4242793421559,-23.3538513616914,"Ivaté",0.0358270124708929,"Emission","< 1"
"920",-53.4230396398251,-25.783583134957,"Santa Izabel Do Oeste",0.0086945368232888,"Emission","< 1"
"921",-53.4219677580571,-21.9255816038253,"Nova Andradina",0.0980395923513774,"Emission","< 1"
"922",-53.4218305476335,-25.4319686902874,"Boa Vista Da Aparecida",0.00591171134409505,"Emission","< 1"
"923",-53.4162393857794,-29.4333226358147,"Nova Palma",0.00474920471716919,"Emission","< 1"
"924",-53.4154104969735,-26.1412813499715,"Salgado Filho",0.00309065464385885,"Emission","< 1"
"925",-53.4141131777112,-23.6798384524001,"Umuarama",0.0486669313675701,"Emission","< 1"
"926",-53.413454474807,-31.4051017438463,"Pinheiro Machado",0.0408873552183162,"Emission","< 1"
"927",-53.4117100872337,-33.6508248662208,"Chuí",-0.000237002971326536,"Removal","< 0"
"928",-53.4105972014362,-24.413958872007,"Jesuítas",0.00953833214009587,"Emission","< 1"
"929",-53.4019824513113,-24.0982967335145,"Alto Piquiri",0.0127397946252596,"Emission","< 1"
"930",-53.4014858105635,-32.0209063167727,"Herval",0.0258628193842968,"Emission","< 1"
"931",-53.3931935968974,-15.5580259013849,"General Carneiro",0.0363117844854189,"Emission","< 1"
"932",-53.391,-24.888,"Cascavel",0.000785674709494159,"Emission","< 1"
"933",-53.3879307644066,-27.1710788354214,"Vicente Dutra",0.00436553239815072,"Emission","< 1"
"934",-53.382291649367,-27.9400064011411,"Palmeira Das Missões",0.0369376113397852,"Emission","< 1"
"935",-53.382,-22.244,"Nova Andradina",-0.000367633004533826,"Removal","< 0"
"936",-53.3795547670981,-25.0277771182466,"Cascavel",0.0529337223456249,"Emission","< 1"
"937",-53.3783076246754,-25.5908002340091,"Nova Prata Do Iguaçu",0.00778750132853603,"Emission","< 1"
"938",-53.377,-23.39,"Ivaté",-0.000408694780140377,"Removal","< 0"
"939",-53.369,-32.569,"Jaguarão",0.000388960027658916,"Emission","< 1"
"940",-53.3650216513273,-23.9230092687449,"Perobal",0.000278668059279887,"Emission","< 1"
"941",-53.3639196533824,-24.6924270361512,"Cafelândia",0.0105433719002262,"Emission","< 1"
"942",-53.3629400481139,-23.0849499290602,"Santa Cruz De Monte Castelo",0.0162854591157306,"Emission","< 1"
"943",-53.3626373515101,-27.5010613520486,"Seberi",0.00719243705545857,"Emission","< 1"
"944",-53.359852499022,-27.3405159060668,"Frederico Westphalen",0.00748617782623806,"Emission","< 1"
"945",-53.3517523859007,-24.4385455364757,"Iracema Do Oeste",0.00192142990061702,"Emission","< 1"
"946",-53.35086722,-17.09699415,"Alto Araguaia",-0.000495180080131603,"Removal","< 0"
"947",-53.34890887,-17.02233862,"Alto Araguaia",-0.000495180080131603,"Removal","< 0"
"948",-53.3464021237834,-29.5605377016825,"Dona Francisca",0.00125493547926357,"Emission","< 1"
"949",-53.3452593253403,-26.0953803637536,"Manfrinópolis",0.00185792501859827,"Emission","< 1"
"950",-53.3443519260503,-26.9784550610702,"Riqueza",0.00388355142164155,"Emission","< 1"
"951",-53.3439107347419,-29.8173597801786,"Restinga Seca",0.0137061110469606,"Emission","< 1"
"952",-53.3415202505401,-27.7016006993766,"Boa Vista Das Missões",0.00845590810327001,"Emission","< 1"
"953",-53.3373422967071,-26.7637808215628,"Flor Do Sertão",0.000680262838619183,"Emission","< 1"
"954",-53.3359376983687,-32.4100330642491,"Jaguarão",0.0316618637939855,"Emission","< 1"
"955",-53.335631843771,-29.2914595999484,"Pinhal Grande",0.00558819395412717,"Emission","< 1"
"956",-53.3331086445015,-26.5329481865523,"Anchieta",0.00521847862925438,"Emission","< 1"
"957",-53.332,-24.611,"Cafelândia",0.000175370642180192,"Emission","< 1"
"958",-53.331672648906,-24.2926449999243,"Formosa Do Oeste",0.00773307372908101,"Emission","< 1"
"959",-53.3244564845713,-26.8453171961213,"Iraceminha",0.00386244909605161,"Emission","< 1"
"960",-53.3171239767209,-26.6483895331109,"Romelândia",0.00437679360301122,"Emission","< 1"
"961",-53.3145292583634,-26.3735438267673,"Palma Sola",0.00798941340405824,"Emission","< 1"
"962",-53.3138338214542,-22.8330966989962,"Porto Rico",0.00628010805244046,"Emission","< 1"
"963",-53.311,-24.787,"Corbélia",-0.000270618170382912,"Removal","< 0"
"964",-53.307885818259,1.09776223368137,"Laranjal Do Jari",0.000319109580364003,"Emission","< 1"
"965",-53.2965734956841,-17.827206392476,"Alto Taquari",0.0308992949433611,"Emission","< 1"
"966",-53.2900464011409,-23.3475930465348,"Douradina",0.0137029122737957,"Emission","< 1"
"967",-53.287721,-29.447655,"Nova Palma",0.0299454467102684,"Emission","< 1"
"968",-53.2870604440234,-25.7753894061325,"Salto Do Lontra",0.00907189043579737,"Emission","< 1"
"969",-53.2864773473466,-26.2381516712059,"Flor Da Serra Do Sul",0.00590857802197246,"Emission","< 1"
"970",-53.2845539728961,-28.3738576549925,"Santa Bárbara Do Sul",0.0254371618653665,"Emission","< 1"
"971",-53.282,-24.541,"Nova Aurora",-0.00018474624131361,"Removal","< 0"
"972",-53.277,-24.797,"Corbélia",-0.000292086152650238,"Removal","< 0"
"973",-53.2769814651162,-24.5027190926557,"Nova Aurora",0.0132699971605966,"Emission","< 1"
"974",-53.276,-22.772,"Porto Rico",-0.00045006324120789,"Removal","< 0"
"975",-53.2758839840693,-28.8951238272162,"Fortaleza Dos Valos",0.0173830022486234,"Emission","< 1"
"976",-53.272,-23.781,"Umuarama",0.0049333570358661,"Emission","< 1"
"977",-53.2641117751242,-27.6295460042916,"Jaboticaba",0.0034648944130189,"Emission","< 1"
"978",-53.2630575793555,-27.0251755243054,"Caibi",0.00209458883727695,"Emission","< 1"
"979",-53.2584805673799,-15.0781024058292,"Novo São Joaquim",0.0625376031308176,"Emission","< 1"
"980",-53.2575970239896,-25.8984333145429,"Nova Esperança Do Sudoeste",0.00478232053193202,"Emission","< 1"
"981",-53.2542187935983,-29.0682432276936,"Salto Do Jacuí",0.0115539495726989,"Emission","< 1"
"982",-53.251,-29.056,"Salto Do Jacuí",-0.000280023191185741,"Removal","< 0"
"983",-53.2485556794649,-27.4324212634096,"Cristal Do Sul",0.00115021095501935,"Emission","< 1"
"984",-53.2415571857662,-27.2493367675366,"Iraí",0.00470073686509432,"Emission","< 1"
"985",-53.2407162481244,-23.1144974555481,"Santa Isabel Do Ivaí",0.00909545303072692,"Emission","< 1"
"986",-53.2399617011167,-26.6896434905543,"São Miguel Da Boa Vista",0.000138068162493491,"Emission","< 1"
"987",-53.2376753717873,-27.7797072064072,"São Pedro Das Missões",0.00198361513956185,"Emission","< 1"
"988",-53.2370445946493,-24.7425119592895,"Corbélia",0.0196138780154366,"Emission","< 1"
"989",-53.236458,-29.259051,"Pinhal Grande",0.0030313694702684,"Emission","< 1"
"990",-53.2350580358513,-27.5289562821828,"Pinhal",0.00120665666909712,"Emission","< 1"
"991",-53.2265812916944,-29.6080871956211,"Agudo",0.00544108044019804,"Emission","< 1"
"992",-53.2260900399002,-25.6401632163273,"Boa Esperança Do Iguaçu",0.00296019579888472,"Emission","< 1"
"993",-53.2248148895978,-25.4386935478157,"Três Barras Do Paraná",0.0136820774814322,"Emission","< 1"
"994",-53.2215047150739,-23.5823522496428,"Maria Helena",0.0142736952190468,"Emission","< 1"
"995",-53.2106626731398,-24.0536575679437,"Mariluz",0.0131708621941784,"Emission","< 1"
"996",-53.207,-22.994,"Santa Isabel Do Ivaí",-0.000141742124454301,"Removal","< 0"
"997",-53.2060290914855,-27.7032733986234,"Lajeado Do Bugre",0.0011456323065008,"Emission","< 1"
"998",-53.2031294785612,-18.5187917939835,"Costa Rica",0.0714669803105313,"Emission","< 1"
"999",-53.1981128313952,-26.7599735766528,"Maravilha",0.00343670917085466,"Emission","< 1"
"1000",-53.1949982414135,-3.16021316956311,"Medicilândia",0.00746293488288096,"Emission","< 1"
"1001",-53.1926186876719,-27.3655924128466,"Ametista Do Sul",0.000867792201092604,"Emission","< 1"
"1002",-53.1906645930672,-26.8792275561365,"Cunha Porã",0.00448410429572423,"Emission","< 1"
"1003",-53.188468,-29.014228,"Salto Do Jacuí",0.0799419429982684,"Emission","< 1"
"1004",-53.181264547733,-22.7849626442659,"São Pedro Do Paraná",0.00979726427034368,"Emission","< 1"
"1005",-53.1798290657806,-27.0926217357566,"Palmitos",0.0059206956585137,"Emission","< 1"
"1006",-53.1782805560345,-29.22402571986,"Estrela Velha",0.00186701395795181,"Emission","< 1"
"1007",-53.1776015977304,-22.3908161256996,"Batayporã",0.0402121977305434,"Emission","< 1"
"1008",-53.1770036633677,-30.8170393658742,"Santana Da Boa Vista",0.0230346854472719,"Emission","< 1"
"1009",-53.176,-25.428,"Três Barras Do Paraná",-0.000374073399214024,"Removal","< 0"
"1010",-53.1723348820045,-28.5949618017388,"Ibirubá",0.0181284683182175,"Emission","< 1"
"1011",-53.1706219071997,-27.4633934617648,"Rodeio Bonito",0.0015116775934024,"Emission","< 1"
"1012",-53.1699250459573,-26.5927486510529,"Santa Terezinha Do Progresso",0.00196545930969618,"Emission","< 1"
"1013",-53.1671218124014,-27.5618137349007,"Novo Tiradentes",0.00126148870937468,"Emission","< 1"
"1014",-53.1661447078477,-29.4182602998067,"Ibarama",0.00238096270182974,"Emission","< 1"
"1015",-53.1630880130057,-27.6285496628723,"Cerro Grande",0.000702815336160418,"Emission","< 1"
"1016",-53.157,-24.026,"Mariluz",-0.00018624559245609,"Removal","< 0"
"1017",-53.1565465300077,-26.6760666227111,"Tigrinhos",0.000224457271039856,"Emission","< 1"
"1018",-53.1556962012934,-25.2414167450479,"Catanduvas",0.0163144812226719,"Emission","< 1"
"1019",-53.1553324833952,-24.3031439283836,"Quarto Centenário",0.00182197325545006,"Emission","< 1"
"1020",-53.1537697178473,-25.9066457007866,"Enéas Marques",0.00495140574972594,"Emission","< 1"
"1021",-53.1437618814723,-24.6440845713692,"Anahy",0.00507141696414757,"Emission","< 1"
"1022",-53.138,-22.951,"Loanda",0.000207129625470902,"Emission","< 1"
"1023",-53.137,-18.551,"Costa Rica",-0.000456742169024391,"Removal","< 0"
"1024",-53.1340853141212,-23.3291037132424,"Tapira",0.016237982299844,"Emission","< 1"
"1025",-53.13258224325,-26.0476891435634,"Francisco Beltrão",0.0209499164569309,"Emission","< 1"
"1026",-53.1319796316797,-27.7079319127463,"Sagrada Família",0.00178542031090024,"Emission","< 1"
"1027",-53.1316981165898,-27.7948214973092,"São José Das Missões",0.00278871969388629,"Emission","< 1"
"1028",-53.1303352792535,-19.2281856346383,"Água Clara",0.0803630300638799,"Emission","< 1"
"1029",-53.1302902792012,-26.4504187758361,"Campo Erê",0.00868543384642058,"Emission","< 1"
"1030",-53.1297518912478,-25.5953923775246,"Cruzeiro Do Iguaçu",0.00273692880059048,"Emission","< 1"
"1031",-53.1283810094683,-14.3746080080162,"Campinápolis",0.0340986154569388,"Emission","< 1"
"1032",-53.1213097269121,-29.6962525263332,"Paraíso Do Sul",0.00151698704893508,"Emission","< 1"
"1033",-53.1212753845819,-16.7505153781052,"Araguainha",0.0087418341802816,"Emission","< 1"
"1034",-53.1168687941796,-28.756920896506,"Quinze De Novembro",0.00558701602681823,"Emission","< 1"
"1035",-53.1159861839769,-27.8995297478452,"Novo Barreiro",0.00318159347279688,"Emission","< 1"
"1036",-53.1150814955506,-28.0969082402181,"Chapada",0.0156595832663758,"Emission","< 1"
"1037",-53.1091964288679,-23.1543529168793,"Santa Mônica",0.00778524389525961,"Emission","< 1"
"1038",-53.1032481922628,-31.4387042849899,"Piratini",0.0511075836057555,"Emission","< 1"
"1039",-53.1008703368487,-26.9750867767446,"Cunhataí",0.000768949513756718,"Emission","< 1"
"1040",-53.0952882407243,-26.6840207548833,"Bom Jesus Do Oeste",0.000866338977408605,"Emission","< 1"
"1041",-53.0944244099518,-28.3867878563935,"Saldanha Marinho",0.00631346231799674,"Emission","< 1"
"1042",-53.0930861358588,-26.2465397404418,"Marmeleiro",0.0102448155716674,"Emission","< 1"
"1043",-53.0904947342554,-24.8013466219067,"Braganey",0.00982205070873242,"Emission","< 1"
"1044",-53.086912325446,-24.687840326543,"Iguatu",0.00332371902785391,"Emission","< 1"
"1045",-53.0833566481946,-23.7587409911694,"Cruzeiro Do Oeste",0.0322281446435619,"Emission","< 1"
"1046",-53.0779553666095,-27.3356905600656,"Planalto",0.00329087360799275,"Emission","< 1"
"1047",-53.07747077,-13.73301598,"Água Boa",-0.000495180080131603,"Removal","< 0"
"1048",-53.0753686007811,-25.7501624675012,"Dois Vizinhos",0.00907214656504295,"Emission","< 1"
"1049",-53.0721668558022,-23.4267029426069,"Nova Olímpia",0.00595894311355035,"Emission","< 1"
"1050",-53.0712529683917,-22.9491320343477,"Loanda",0.0204573241793585,"Emission","< 1"
"1051",-53.07,-23.76,"Cruzeiro Do Oeste",0.000105310052431587,"Emission","< 1"
"1052",-53.0690119174236,-17.2445088634997,"Santa Rita Do Araguaia",0.0139991612539925,"Emission","< 1"
"1053",-53.064478655815,-22.7328145233885,"Marilena",0.0133117046032337,"Emission","< 1"
"1054",-53.0638745148106,-27.549524587705,"Liberato Salzano",0.00392179539497326,"Emission","< 1"
"1055",-53.0635230347473,-27.2172609714456,"Alpestre",0.00574556352164773,"Emission","< 1"
"1056",-53.0634994506836,-26.0592002868652,"Francisco Beltrão",-0.000326324443478126,"Removal","< 0"
"1057",-53.0584829756926,-27.7442572123175,"Novo Xingu",0.00247579311904679,"Emission","< 1"
"1058",-53.0577263072637,-28.9056140757978,"Campos Borges",0.0059319752266515,"Emission","< 1"
"1059",-53.057,-24.208,"Goioerê",0.000324215319233649,"Emission","< 1"
"1060",-53.0522639318045,-29.2588650437532,"Arroio Do Tigre",0.00485644177208996,"Emission","< 1"
"1061",-53.0521846476074,-24.1726707412461,"Goioerê",0.0270531001323013,"Emission","< 1"
"1062",-53.0510962884609,-26.774777464599,"Modelo",0.00157854950232621,"Emission","< 1"
"1063",-53.048,-26.068,"Francisco Beltrão",0.00273817065862625,"Emission","< 1"
"1064",-53.0463,-30.390024,"Cachoeira Do Sul",0.00201859261931749,"Emission","< 1"
"1065",-53.042,-25.749,"Dois Vizinhos",0.000843604185453609,"Emission","< 1"
"1066",-53.0418393080748,-29.5026595960182,"Lagoa Bonita Do Sul",0.000412226947916382,"Emission","< 1"
"1067",-53.0400144241951,-26.8972067891792,"Saudades",0.00380289548686262,"Emission","< 1"
"1068",-53.036,-22.593,"Rosana",0.000449411139630718,"Emission","< 1"
"1069",-53.0314118358428,-27.0301092335344,"São Carlos",0.00265087678041706,"Emission","< 1"
"1070",-53.028,-25.527,"Quedas Do Iguaçu",-0.000442634637820149,"Removal","< 0"
"1071",-53.0262695766117,-29.4055365048391,"Sobradinho",0.00141686180762217,"Emission","< 1"
"1072",-53.0252384410049,-26.6926209204024,"Serra Alta",0.00112550602639751,"Emission","< 1"
"1073",-53.0240412509759,-25.1520134946008,"Ibema",0.0030065096080685,"Emission","< 1"
"1074",-53.0222784400944,-26.5905215205818,"Saltinho",0.000106334647242241,"Emission","< 1"
"1075",-53.021666959999,-24.5049333806972,"Ubiratã",0.0311460941943096,"Emission","< 1"
"1076",-53.02,-26.149,"Marmeleiro",-0.000257464771723884,"Removal","< 0"
"1077",-53.0167036524088,-27.921694751794,"Barra Funda",0.00191621022415423,"Emission","< 1"
"1078",-53.0143283527002,-29.035098621488,"Jacuizinho",0.00780602049923176,"Emission","< 1"
"1079",-53.013902244424,-24.9312406231107,"Campo Bonito",0.0096530209722874,"Emission","< 1"
"1080",-53.009057,-25.534537,"Quedas Do Iguaçu",0.0182461508638684,"Emission","< 1"
"1081",-53.0060053607376,-33.162331741634,"Santa Vitória Do Palmar",0.0638243661980758,"Emission","< 1"
"1082",-53.0055714897654,-24.0244395447755,"Moreira Sales",0.0212550706312918,"Emission","< 1"
"1083",-52.9954903033169,-29.7601449776444,"Novo Cabrais",-0.000273711475647903,"Removal","< 0"
"1084",-52.9954766201508,-29.6270589612104,"Cerro Branco",0.000977199990779554,"Emission","< 1"
"1085",-52.993,-24.514,"Ubiratã",-7.18859916796707e-05,"Removal","< 0"
"1086",-52.9913530974452,-28.4724439114,"Colorado",0.00949409657742857,"Emission","< 1"
"1087",-52.99030751961,-27.6892652126767,"Constantina",0.00526737820985475,"Emission","< 1"
"1088",-52.988924805127,-28.8043198184101,"Alto Alegre",0.00293128497295538,"Emission","< 1"
"1089",-52.9876112944807,-26.4876953040302,"São Bernardino",3.35093508735497e-05,"Emission","< 1"
"1090",-52.9864521411545,-30.206205164197,"Cachoeira Do Sul",0.068324732007551,"Emission","< 1"
"1091",-52.9795183359184,-27.9968190083179,"Nova Boa Vista",0.00199115191358846,"Emission","< 1"
"1092",-52.9794713665826,-32.7541499523663,NA,0.000944235225963201,"Emission","< 1"
"1093",-52.9786274833689,-28.6686112464024,"Selbach",0.00495365214941206,"Emission","< 1"
"1094",-52.9766320704843,-26.8293734814432,"Pinhalzinho",0.00264793239011738,"Emission","< 1"
"1095",-52.973,-22.751,"Nova Londrina",-5.34848640219631e-05,"Removal","< 0"
"1096",-52.965,-26.155,"Renascença",-0.000294675940987248,"Removal","< 0"
"1097",-52.9608237806329,-24.2904886477485,"Rancho Alegre D'oeste",0.0161476172666966,"Emission","< 1"
"1098",-52.958685,-22.471582,"Batayporã",2.12222767154974,"Emission","< 5"
"1099",-52.9584859610843,-23.3828315792779,"Cidade Gaúcha",0.0231006458824353,"Emission","< 1"
"1100",-52.9583811805803,-25.8750895987699,"Verê",0.00839156809321984,"Emission","< 1"
"1101",-52.9567352792386,-27.054386024553,"Águas De Chapecó",0.00172776516748074,"Emission","< 1"
"1102",-52.9549989353141,-25.4574146280759,"Quedas Do Iguaçu",0.0132206522094453,"Emission","< 1"
"1103",-52.9547712790779,-22.7868855621013,"Nova Londrina",0.00965995664869379,"Emission","< 1"
"1104",-52.9508845841736,-26.2251421418675,"Renascença",0.0134807383455051,"Emission","< 1"
"1105",-52.95,-23.368,"Cidade Gaúcha",-2.79277422751472e-05,"Removal","< 0"
"1106",-52.9468004335961,-26.6953418093098,"Sul Brasil",0.00176599215481114,"Emission","< 1"
"1107",-52.9400541709916,-25.6558982373564,"São Jorge D'oeste",0.00735384877492328,"Emission","< 1"
"1108",-52.9365748513311,-16.6589499846534,"Ponte Branca",0.00913741654184723,"Emission","< 1"
"1109",-52.9345207679985,-23.0916563285591,"Planaltina Do Paraná",0.00764421806323935,"Emission","< 1"
"1110",-52.9294293113939,-29.3124866021489,"Segredo",0.00218203201926791,"Emission","< 1"
"1111",-52.9266921992408,-19.9628222593252,"Água Clara",0.0963762048624702,"Emission","< 1"
"1112",-52.920210769659,-27.1467112037536,"Caxambu Do Sul",0.00201550458390358,"Emission","< 1"
"1113",-52.9198569711035,-32.1884163230987,"Arroio Grande",0.0391302902575249,"Emission","< 1"
"1114",-52.9149157046709,-27.4456873503266,"Gramado Dos Loureiros",0.00226627986201398,"Emission","< 1"
"1115",-52.914,-25.463,"Quedas Do Iguaçu",0.000268603022312577,"Emission","< 1"
"1116",-52.9087284511614,-27.6847725508712,"Engenho Velho",0.00156189375847451,"Emission","< 1"
"1117",-52.9076417820621,-28.1299565845013,"Almirante Tamandaré Do Sul",0.00614670252454834,"Emission","< 1"
"1118",-52.9066927884652,-26.9081685590405,"Nova Erechim",0.000759290688183187,"Emission","< 1"
"1119",-52.899024749617,-27.5277402235979,"Trindade Do Sul",0.00452243522820653,"Emission","< 1"
"1120",-52.8984621477728,-22.7287210741778,"Itaúna Do Sul",0.00336120799127128,"Emission","< 1"
"1121",-52.896302213325,-27.9413288114454,"Sarandi",0.00925685501615145,"Emission","< 1"
"1122",-52.8930772985432,-27.8324751973558,"Rondinha",0.0062613616675444,"Emission","< 1"
"1123",-52.8928284546012,-22.6350438139445,"Diamante Do Norte",0.0044662839149002,"Emission","< 1"
"1124",-52.8927907008031,-29.1140875120296,"Tunas",0.00471464347974228,"Emission","< 1"
"1125",-52.8902945391902,-23.6584577105892,"Tapejara",0.0320964180998404,"Emission","< 1"
"1126",-52.8900991052877,-26.6275922841444,"Irati",0.00173850646113262,"Emission","< 1"
"1127",-52.8899289923489,-16.2947313202044,"Torixoréu",0.0387068108973468,"Emission","< 1"
"1128",-52.884,-25.107,"Guaraniaçu",-0.000261281301904742,"Removal","< 0"
"1129",-52.879738228051,-27.2528384340837,"Rio Dos Índios",0.00440947447458254,"Emission","< 1"
"1130",-52.874,-30.052,"Cachoeira Do Sul",-0.000272458283148683,"Removal","< 0"
"1131",-52.8725022125989,-31.9597303796754,"Pedro Osório",0.0155142139178524,"Emission","< 1"
"1132",-52.8713060211167,-26.7171951902596,"Jardinópolis",0.00110979936474891,"Emission","< 1"
"1133",-52.8699015037954,-29.4392097912514,"Passa Sete",0.000453235147239575,"Emission","< 1"
"1134",-52.8689831760908,-27.0519640450748,"Planalto Alegre",0.000468080532463857,"Emission","< 1"
"1135",-52.868501,-22.60225,"Diamante Do Norte",0.354363608152402,"Emission","< 1"
"1136",-52.866,-23.884,"Tuneiras Do Oeste",-0.000396768123325196,"Removal","< 0"
"1137",-52.8636088428671,-28.2778710243705,"Carazinho",0.0169317041716583,"Emission","< 1"
"1138",-52.8632658667121,-25.055098064383,"Guaraniaçu",0.0230394141128609,"Emission","< 1"
"1139",-52.8615683461025,-28.6613766028118,"Tapera",0.00501363047194061,"Emission","< 1"
"1140",-52.8597728640749,-26.4654882215859,"Novo Horizonte",0.00629633731807541,"Emission","< 1"
"1141",-52.859,-23.723,"Tapejara",0.000368105416313514,"Emission","< 1"
"1142",-52.857250729647,-27.3695015784776,"Nonoai",0.00903583126307014,"Emission","< 1"
"1143",-52.8560099051319,-26.786666327453,"União Do Oeste",0.0020728418199702,"Emission","< 1"
"1144",-52.853,-21.298,"Santa Rita Do Pardo",-0.000466624256099827,"Removal","< 0"
"1145",-52.8523112420241,-26.8516388508793,"Águas Frias",0.000994971082571424,"Emission","< 1"
