"","lon","lat","city_ref","anomalie","class_anomalie","class_nova"
"1",-73.436212623797,-7.50637570685889,"Mâncio Lima",-0.0317841442122477,"Removal","< 0"
"2",-73.2237996935056,-7.84388048443167,"Rodrigues Alves",-0.00828421072210433,"Removal","< 0"
"3",-72.8445879498086,-7.22978092952451,"Guajará",-0.0218862559484338,"Removal","< 0"
"4",-72.769501,-7.59991,"Cruzeiro Do Sul",0.0029459584341498,"Emission","< 1"
"5",-72.7553304218677,-7.9725286397621,"Cruzeiro Do Sul",0.00295023067815776,"Emission","< 1"
"6",-72.7349135140501,-8.49244909146235,"Porto Walter",-0.0558364912430474,"Removal","< 0"
"7",-72.5593640255015,-9.09688649135233,"Marechal Thaumaturgo",0.00279393462944919,"Emission","< 1"
"8",-71.9058207693425,-9.24226548573283,"Jordão",-0.0375139174895408,"Removal","< 0"
"9",-71.7407247801727,-5.71061130978623,"Atalaia Do Norte",0.208728319800279,"Emission","< 1"
"10",-71.4449915259482,-8.23946595661596,"Tarauacá",0.171256049726716,"Emission","< 1"
"11",-71.4128668677446,-7.18051157923575,"Ipixuna",0.036253622898135,"Emission","< 1"
"12",-70.7444757427875,-8.92429348856395,"Feijó",-0.158543264763398,"Removal","< 0"
"13",-70.3964080617679,-9.41234936079402,"Santa Rosa Do Purus",0.0208817472966413,"Emission","< 1"
"14",-70.2768377851722,-5.42842836610177,"Benjamin Constant",0.0957210469887619,"Emission","< 1"
"15",-70.218248152793,-7.02199804721698,"Eirunepé",0.0401216550859707,"Emission","< 1"
"16",-70.0550858891606,-7.57330419046941,"Envira",0.0925186633683877,"Emission","< 1"
"17",-70.0061515758409,-10.780268510515,"Assis Brasil",-0.0439322235132822,"Removal","< 0"
"18",-69.9428,-4.2339,"Tabatinga",-0.000446781428914891,"Removal","< 0"
"19",-69.935799,-4.25567,"Tabatinga",0.00427205665093847,"Emission","< 1"
"20",-69.8557015662941,-9.38328008246644,"Manoel Urbano",-0.104342540253552,"Removal","< 0"
"21",-69.6756879652419,-4.0288289219263,"Tabatinga",-0.00335788774065189,"Removal","< 0"
"22",-69.4511185863739,-4.50143648494653,"São Paulo De Olivença",0.125650620267525,"Emission","< 1"
"23",-69.3830075269298,-9.77220173684327,"Sena Madureira",-0.272827499838786,"Removal","< 0"
"24",-69.2065513599838,-10.7495372422272,"Brasiléia",-0.0170109854081677,"Removal","< 0"
"25",-69.0872585282825,-3.05237276981368,"Santo Antônio Do Içá",0.155779155686601,"Emission","< 1"
"26",-68.6182824581683,-10.8891209528503,"Epitaciolândia",-0.00214890946033137,"Removal","< 0"
"27",-68.5044408136186,-10.5755718755675,"Xapuri",-0.0571402376125833,"Removal","< 0"
"28",-68.4063044801014,-4.71529084220981,"Jutaí",0.0766488067809897,"Emission","< 1"
"29",-68.3710619510093,-10.0661349491742,"Rio Branco",-0.182053141262732,"Removal","< 0"
"30",-68.3166919207107,-1.69970336927077,"Japurá",0.265015673906098,"Emission","< 1"
"31",-68.2864994699081,-3.41843342830083,"Amaturá",0.025897751129415,"Emission","< 1"
"32",-68.1971409475066,-7.75780543969732,"Pauini",0.272214942511123,"Emission","< 1"
"33",-68.1737108690377,-9.61409487407495,"Bujari",-0.0808509816162135,"Removal","< 0"
"34",-68.1128412174588,-6.68282224110506,"Itamarati",0.117200173273308,"Emission","< 1"
"35",-68.0476335877583,-8.77315466766972,"Boca Do Acre",0.402290419415394,"Emission","< 1"
"36",-68.0017764798898,0.365586186993581,"São Gabriel Da Cachoeira",0.134259908974628,"Emission","< 1"
"37",-67.893984,-9.869031,"Rio Branco",0.0274699520834166,"Emission","< 1"
"38",-67.8364698182792,-10.4734240655898,"Capixaba",0.0309618305312283,"Emission","< 1"
"39",-67.83,-9.947,"Rio Branco",-8.59382318138989e-06,"Removal","< 0"
"40",-67.8260494656625,-2.69180916604253,"Japurá",-0.065756650840372,"Removal","< 0"
"41",-67.791,-9.931,"Rio Branco",0.00662490566139531,"Emission","< 1"
"42",-67.786,-9.964,"Rio Branco",0.002850117613267,"Emission","< 1"
"43",-67.768,-10.034,"Rio Branco",0.00119447386379944,"Emission","< 1"
"44",-67.6984871061968,-9.62947370630415,"Porto Acre",-0.0405682286568969,"Removal","< 0"
"45",-67.4275936314969,-9.99722089624224,"Senador Guiomard",0.0385700534834706,"Emission","< 1"
"46",-67.3401303333523,-10.2485083732382,"Plácido De Castro",0.0677528428612523,"Emission","< 1"
"47",-67.3374716381014,-5.1185164885162,"Carauari",-0.167448299048482,"Removal","< 0"
"48",-66.9501921701075,-9.93357329811221,"Acrelândia",0.0510293884411246,"Emission","< 1"
"49",-66.3579242156695,-2.49098554027089,"Fonte Boa",0.137560544984115,"Emission","< 1"
"50",-66.3077991877054,-3.5244642076617,"Juruá",-0.110175768464144,"Removal","< 0"
"51",-65.8116628613948,-8.37560148087939,"Lábrea",0.681736308333146,"Emission","< 1"
"52",-65.5315360442968,-4.47011066732884,"Tefé",-0.101849913587575,"Removal","< 0"
"53",-65.5213054447365,-0.318343806838944,"Santa Isabel Do Rio Negro",-0.0106699880328323,"Removal","< 0"
"54",-65.4107896638204,-3.1656558635417,"Uarini",-0.205927321189183,"Removal","< 0"
"55",-65.3244466984137,-3.69468474667569,"Alvarães",-0.0453329418562,"Removal","< 0"
"56",-65.0395512290932,-2.42682864332425,"Maraã",-0.208475180724262,"Removal","< 0"
"57",-64.9557964235078,-6.09370196685332,"Tapauá",-0.0976756438985203,"Removal","< 0"
"58",-64.724098,-3.38294,"Tefé",0.00164917319841872,"Emission","< 1"
"59",-64.7033,-3.3458,"Tefé",-0.000409933509782863,"Removal","< 0"
"60",-64.6265369340764,-10.3827186401927,"Nova Mamoré",0.540348431213753,"Emission","< 1"
"61",-64.6154,-4.1728,"Coari",0.000758958347602773,"Emission","< 1"
"62",-64.5342086540273,-11.3044952928918,"Guajará-Mirim",0.283746156289846,"Emission","< 1"
"63",-64.3077392911091,-9.15396949952705,"Porto Velho",0.503000204121858,"Emission","< 1"
"64",-64.1253106463893,-4.43635141737092,"Coari",-0.140621967262746,"Removal","< 0"
"65",-64.0619034098736,-7.30075809991637,"Canutama",0.0890036403697454,"Emission","< 1"
"66",-64.0583379578841,-12.1469701531867,"Costa Marques",0.0701471737698036,"Emission","< 1"
"67",-63.9411627315935,-10.0521152951453,"Buritis",0.156785720043285,"Emission","< 1"
"68",-63.90242,-8.707854,"Porto Velho",0.0633068140411008,"Emission","< 1"
"69",-63.7997164659949,-10.4849339751875,"Campo Novo De Rondônia",0.0653619307114234,"Emission","< 1"
"70",-63.468165,-8.740355,"Candeias Do Jamari",0.0221241003694684,"Emission","< 1"
"71",-63.4347637971427,-0.465034755640813,"Barcelos",1.92011950731719,"Emission","< 5"
"72",-63.3943222506631,-9.64931030381078,"Alto Paraíso",0.0283610409557074,"Emission","< 1"
"73",-63.3723926081637,-10.2108324960752,"Monte Negro",0.0338735776956821,"Emission","< 1"
"74",-63.3256206264706,-8.8869938892035,"Candeias Do Jamari",0.0515530785110272,"Emission","< 1"
"75",-63.2306990655302,-11.8072176455011,"Seringueiras",0.0877602788575224,"Emission","< 1"
"76",-63.184012138019,-10.7480293450291,"Governador Jorge Teixeira",0.00976207091737559,"Emission","< 1"
"77",-63.14,-4.0833,"Coari",-0.000331115750157943,"Removal","< 0"
"78",-63.1221051726145,-12.3685607594049,"São Francisco Do Guaporé",0.0666264266743655,"Emission","< 1"
"79",-63.0449412856846,-9.17020967814704,"Itapuã Do Oeste",0.0920006366889467,"Emission","< 1"
"80",-62.9872612863041,-10.3316028105156,"Cacaulândia",0.0600967751076623,"Emission","< 1"
"81",-62.9832482504681,-11.6149688629242,"Seringueiras",0.0662914324782332,"Emission","< 1"
"82",-62.9733150244066,-3.2889719656745,"Codajás",-0.227769525136188,"Removal","< 0"
"83",-62.9572552229938,-9.9518900066049,"Ariquemes",0.0637615207979992,"Emission","< 1"
"84",-62.8479793319319,-11.0768378400064,"Mirante Da Serra",0.0302857902708858,"Emission","< 1"
"85",-62.7900744846809,-9.64521156279041,"Rio Crespo",0.0506654850784183,"Emission","< 1"
"86",-62.7599859198288,3.07555893733847,"Alto Alegre",0.141952144654794,"Emission","< 1"
"87",-62.5848655794467,-10.5924480639812,"Jaru",0.0842775853618397,"Emission","< 1"
"88",-62.5653358423403,-9.17109363334403,"Cujubim",0.0204260387349054,"Emission","< 1"
"89",-62.5449922370376,-11.3114209655766,"Alvorada D'oeste",0.0116242825005679,"Emission","< 1"
"90",-62.5323571382092,-10.8893442850586,"Nova União",0.00852571103965254,"Emission","< 1"
"91",-62.4864352937305,-7.36121764048094,"Humaitá",0.403368822986867,"Emission","< 1"
"92",-62.4362677327624,3.73190083214486,"Amajari",0.130527604282045,"Emission","< 1"
"93",-62.4315660341966,2.18710190445277,"Mucajaí",0.284997613262367,"Emission","< 1"
"94",-62.4244103378031,-11.103952818163,"Urupá",0.00119465914520504,"Emission","< 1"
"95",-62.3425045479453,-10.1217688667463,"Theobroma",0.0608302649955754,"Emission","< 1"
"96",-62.292,-11.342,"Alvorada D'oeste",6.74653389823894e-05,"Emission","< 1"
"97",-62.2802379253454,-11.6431190143848,"Nova Brasilândia D'oeste",0.00355022296979787,"Emission","< 1"
"98",-62.2797715973984,-10.9434532789846,"Teixeirópolis",0.00799198326940229,"Emission","< 1"
"99",-62.2745291015361,-12.4699545852392,"São Francisco Do Guaporé",0.069682074802725,"Emission","< 1"
"100",-62.1725323786917,-10.6105530023623,"Vale Do Paraíso",-0.036990420818894,"Removal","< 0"
"101",-62.0954094840384,-4.19868021463277,"Anori",-0.112701654064503,"Removal","< 0"
"102",-62.0940465250114,-10.3842566967605,"Vale Do Paraíso",0.0262844436100777,"Emission","< 1"
"103",-62.0832019661713,-11.6810939110983,"Novo Horizonte Do Oeste",0.0164975565027167,"Emission","< 1"
"104",-62.0603,-3.8442,"Codajás",-0.000460780293063717,"Removal","< 0"
"105",-62.010379651234,-9.20409149767888,"Machadinho D'oeste",0.156184483190123,"Emission","< 1"
"106",-61.996788650414,2.51097097487497,"Mucajaí",0.404277366025389,"Emission","< 1"
"107",-61.9391006698644,-9.73243429208468,"Vale Do Anari",0.0281042510502984,"Emission","< 1"
"108",-61.8804677752413,-12.5931927088099,"Alto Alegre Dos Parecis",0.104567803214755,"Emission","< 1"
"109",-61.8800697923836,-11.4708022615799,"Castanheiras",0.00820277758478816,"Emission","< 1"
"110",-61.8779528163675,-11.1662739687853,"Presidente Médici",0.0289813894152404,"Emission","< 1"
"111",-61.8777578071592,-3.08201899753601,"Caapiranga",-0.00611465423987002,"Removal","< 0"
"112",-61.846675,-10.870743,"Ji-Paraná",0.000994388070629771,"Emission","< 1"
"113",-61.8043525681089,-4.60623287371256,"Beruri",-0.249548808193715,"Removal","< 0"
"114",-61.7715555290385,-11.7325577357808,"Rolim De Moura",0.0207719989872106,"Emission","< 1"
"115",-61.7572526727755,-10.4622205325893,"Ji-Paraná",-0.0156470067389027,"Removal","< 0"
"116",-61.7179878784548,-3.50185678710303,"Anamã",-0.030613254202976,"Removal","< 0"
"117",-61.7034202944486,-2.04824598759018,"Novo Airão",0.0925265562796724,"Emission","< 1"
"118",-61.7010906021591,-12.0269677882955,"Santa Luzia D'oeste",0.0226368330357848,"Emission","< 1"
"119",-61.6578,-3.7489,"Anori",-0.000464927873031211,"Removal","< 0"
"120",-61.5689691690567,-11.1602942686694,"Ministro Andreazza",0.0210545655592215,"Emission","< 1"
"121",-61.5452449793137,-13.16545352887,"Cerejeiras",0.0405702951107109,"Emission","< 1"
"122",-61.472,-11.448,"Cacoal",0.00206183688381349,"Emission","< 1"
"123",-61.4703827702326,0.991174857492033,"Caracaraí",1.47371758829747,"Emission","< 5"
"124",-61.4670704163671,-11.9049679731006,"São Felipe D'oeste",-0.0021923614661974,"Removal","< 0"
"125",-61.4508,-11.496,"Cacoal",0.00233104959104638,"Emission","< 1"
"126",-61.4467731433051,-6.45995976145932,"Manicoré",0.508262658370163,"Emission","< 1"
"127",-61.4153836839233,-12.2623269078721,"Parecis",0.0245154805009794,"Emission","< 1"
"128",-61.32472902977,-11.3012876228836,"Cacoal",0.0302270218092214,"Emission","< 1"
"129",-61.3153353804453,-11.878685960501,"Primavera De Rondônia",-0.00857397063790026,"Removal","< 0"
"130",-61.2609495576208,-13.2035616127216,"Cerejeiras",0.00514778341047958,"Emission","< 1"
"131",-61.091646457599,-12.9266294189634,"Corumbiara",0.0394664898175158,"Emission","< 1"
"132",-61.0111750079715,0.038040997334684,"Rorainópolis",0.399514400967203,"Emission","< 1"
"133",-61.009965851638,-10.4630597738196,"Rondolândia",-0.115158912248096,"Removal","< 0"
"134",-60.9587578017748,-3.29153816842941,"Manacapuru",-0.0253753388670298,"Removal","< 0"
"135",-60.8983840447615,-12.5373282365406,"Chupinguaia",0.127686320904384,"Emission","< 1"
"136",-60.8442940271488,4.16878320977885,"Pacaraima",0.0530937771515858,"Emission","< 1"
"137",-60.8303966675936,-11.8944666198303,"Pimenta Bueno",0.102966226219007,"Emission","< 1"
"138",-60.7848307947635,-11.3513419023232,"Espigão D'oeste",-0.0237880692755372,"Removal","< 0"
"139",-60.7179530850046,3.11791500098908,"Boa Vista",0.0785939791882693,"Emission","< 1"
"140",-60.6972660623645,-3.77905074057947,"Manaquiri",-0.00088481424360147,"Removal","< 0"
"141",-60.690944,2.845855,"Boa Vista",0.0102150134359071,"Emission","< 1"
"142",-60.6394626097032,-13.4744355013202,"Cabixi",0.0237352366063113,"Emission","< 1"
"143",-60.5502444357698,-13.1591530901586,"Colorado Do Oeste",0.0199772036230444,"Emission","< 1"
"144",-60.5422849704425,2.27283671804715,"Cantá",-0.268345402324823,"Removal","< 0"
"145",-60.4796872188964,-3.09521872533159,"Iranduba",-0.042633271160474,"Removal","< 0"
"146",-60.4771547995604,-6.82401290167253,"Novo Aripuanã",0.570450569260238,"Emission","< 1"
"147",-60.30419381056,-9.29244066509173,"Colniza",0.589618800372481,"Emission","< 1"
"148",-60.3009784,-14.26727396,"Vila Bela Da Santíssima Trindade",0.000872069919868398,"Emission","< 1"
"149",-60.2764116631871,4.68251977609818,"Uiramutã",0.0882224043912139,"Emission","< 1"
"150",-60.2596280142148,-2.62591938262421,"Manaus",0.0458527206329579,"Emission","< 1"
"151",-60.248420415597,-12.0956220171342,"Vilhena",0.399258884509568,"Emission","< 1"
"152",-60.20800377,-14.41173578,"Vila Bela Da Santíssima Trindade",0.0034238199198684,"Emission","< 1"
"153",-60.1832732709511,-3.7704842987351,"Careiro",-0.177171441440556,"Removal","< 0"
"154",-60.16356503,-14.48780741,"Vila Bela Da Santíssima Trindade",0.0043268199198684,"Emission","< 1"
"155",-60.16324926,-14.05074326,"Nova Lacerda",0.0014806699198684,"Emission","< 1"
"156",-60.1518359998705,0.884434676144147,"São Luiz",-0.0748501647303891,"Removal","< 0"
"157",-60.12016128,-12.84515382,"Vilhena",0.0040997199198684,"Emission","< 1"
"158",-60.11332637,-14.60067717,"Vila Bela Da Santíssima Trindade",-0.000495180080131603,"Removal","< 0"
"159",-60.1001390335274,2.78882424736166,"Bonfim",-0.0265876978841689,"Removal","< 0"
"160",-60.098301,-12.6944,"Vilhena",0.000511355151081207,"Emission","< 1"
"161",-60.06674115,-13.9839163,"Comodoro",-0.000383130080131602,"Removal","< 0"
"162",-60.0638393723615,3.87868247155159,"Normandia",0.00592523849815492,"Emission","< 1"
"163",-60.05875572,-12.63118944,"Comodoro",0.0050373699198684,"Emission","< 1"
"164",-60.05737987,-14.00734243,"Comodoro",0.000620469919868398,"Emission","< 1"
"165",-60.049702,-3.03861,"Manaus",0.169570750181713,"Emission","< 1"
"166",-60.03,-2.057,"Presidente Figueiredo",-0.000342443388631981,"Removal","< 0"
"167",-60.0045,-3.1487,"Manaus",0.0014964880820608,"Emission","< 1"
"168",-59.9895527675489,-1.37091958202035,"Presidente Figueiredo",0.192390014764673,"Emission","< 1"
"169",-59.9860080539587,-15.1894443179208,"Vila Bela Da Santíssima Trindade",0.0179542977014174,"Emission","< 1"
"170",-59.953955,-3.145973,"Manaus",0.248322967619868,"Emission","< 1"
"171",-59.915041,-3.090327,"Manaus",0.0261076532532017,"Emission","< 1"
"172",-59.912,-3.13,"Manaus",0.000117556394386513,"Emission","< 1"
"173",-59.90664622,-15.17852809,"Vila Bela Da Santíssima Trindade",0.000872069919868398,"Emission","< 1"
"174",-59.8563076907437,-10.1796639413478,"Aripuanã",0.329524998965193,"Emission","< 1"
"175",-59.8450199612636,0.635780151206283,"São João Da Baliza",0.0694677232984306,"Emission","< 1"
"176",-59.7714556221057,-14.2998341005992,"Nova Lacerda",-0.00660459761355902,"Removal","< 0"
"177",-59.7504357914881,-13.1928102434668,"Comodoro",0.661063200544679,"Emission","< 1"
"178",-59.73305031,-14.85543805,"Vila Bela Da Santíssima Trindade",-0.000495180080131603,"Removal","< 0"
"179",-59.69373179,-14.5907001,"Nova Lacerda",0.000324569919868398,"Emission","< 1"
"180",-59.63880299,-14.95945934,"Vila Bela Da Santíssima Trindade",0.0020031699198684,"Emission","< 1"
"181",-59.6383804200631,-2.52982292512501,"Rio Preto Da Eva",0.0267682856708413,"Emission","< 1"
"182",-59.5986769964611,-3.28601205048528,"Careiro Da Várzea",-0.0404790089757056,"Removal","< 0"
"183",-59.55963701,-14.50267809,"Conquista D'oeste",0.0021248699198684,"Emission","< 1"
"184",-59.5346939284343,-4.95761743498613,"Borba",0.0846323777040307,"Emission","< 1"
"185",-59.5255338964513,-3.78723051138339,"Autazes",-0.0918970993929561,"Removal","< 0"
"186",-59.477151,-1.914499,"Presidente Figueiredo",0.963608247006268,"Emission","< 1"
"187",-59.4577422970118,-15.516822642299,"Pontes E Lacerda",0.0348934429192412,"Emission","< 1"
"188",-59.432108352059,-7.75995148042286,"Apuí",0.0462324987951052,"Emission","< 1"
"189",-59.38243255,-15.07642429,"Pontes E Lacerda",0.0040420199198684,"Emission","< 1"
"190",-59.3801187,-15.24374158,"Pontes E Lacerda",-0.000495180080131603,"Removal","< 0"
"191",-59.338351861402,0.914951917819518,"Caroebe",0.37335722396556,"Emission","< 1"
"192",-59.335,-15.221,"Pontes E Lacerda",0.00138623639460261,"Emission","< 1"
"193",-59.3322362218606,-14.6346820273622,"Conquista D'oeste",-0.0183410366567541,"Removal","< 0"
"194",-59.3244952468771,-11.5320946123302,"Juína",0.477230698920095,"Emission","< 1"
"195",-59.30607836,-15.08326848,"Pontes E Lacerda",0.000872069919868398,"Emission","< 1"
"196",-59.2844702,-14.88749554,"Pontes E Lacerda",-0.000495180080131603,"Removal","< 0"
"197",-59.25124047,-15.36744619,"Pontes E Lacerda",-0.000495180080131603,"Removal","< 0"
"198",-59.22649153,-15.07448883,"Pontes E Lacerda",-0.000495180080131603,"Removal","< 0"
"199",-59.193054405051,-13.579846004553,"Campos De Júlio",0.473858588014321,"Emission","< 1"
"200",-59.0295876768382,-0.894390376334288,"Urucará",0.393389974744887,"Emission","< 1"
"201",-58.9853022,-13.51031593,"Sapezal",0.000872069919868398,"Emission","< 1"
"202",-58.982335313613,-15.9564035325382,"Porto Esperidião",0.0650778046980367,"Emission","< 1"
"203",-58.9631074088735,-14.96610619188,"Vale De São Domingos",0.0112447705248766,"Emission","< 1"
"204",-58.8656657176541,-15.3047947834922,"Jauru",0.0152039733754354,"Emission","< 1"
"205",-58.7753427983357,-3.17412347315881,"Itacoatiara",-0.0905636687313546,"Removal","< 0"
"206",-58.756,-11.406,"Juína",0.00174049207673129,"Emission","< 1"
"207",-58.73550902,-13.97145769,"Sapezal",0.0050099699198684,"Emission","< 1"
"208",-58.7052609787506,-1.94176235008035,"São Sebastião Do Uatumã",0.0470615906391481,"Emission","< 1"
"209",-58.702574634848,-15.5273863779906,"Figueirópolis D'oeste",0.01923814974305,"Emission","< 1"
"210",-58.6751545554186,-9.53785400436083,"Cotriguaçu",-0.0137937682857909,"Removal","< 0"
"211",-58.65354990934,-13.1544363665191,"Sapezal",0.770600432715975,"Emission","< 1"
"212",-58.63145488,-12.9749009,"Sapezal",0.000988969919868398,"Emission","< 1"
"213",-58.6248256086724,-10.397452407155,"Juruena",0.0340167018265237,"Emission","< 1"
"214",-58.6132683390867,-2.49723744324166,"Itapiranga",0.0147604310875299,"Emission","< 1"
"215",-58.602797237143,-10.9407260428102,"Castanheira",0.0820174274584352,"Emission","< 1"
"216",-58.60110603,-11.9000804,"Juína",0.000872069919868398,"Emission","< 1"
"217",-58.5997698709424,-3.98950282165114,"Nova Olinda Do Norte",-0.0715237465937158,"Removal","< 0"
"218",-58.5975919818359,-15.3352019053271,"Indiavaí",0.0123359627513244,"Emission","< 1"
"219",-58.59528615,-12.94791838,"Sapezal",0.000435769919868398,"Emission","< 1"
"220",-58.58202454,-16.18384736,"Cáceres",-0.000495180080131603,"Removal","< 0"
"221",-58.5370873545728,-2.82054932167931,"Silves",-0.0111267774788432,"Removal","< 0"
"222",-58.47600868,-12.9313239,"Sapezal",0.000872069919868398,"Emission","< 1"
"223",-58.4665,-3.143,"Itacoatiara",6.60330776521756e-05,"Emission","< 1"
"224",-58.459102659513,-15.2530162746388,"Araputanga",0.028422410939192,"Emission","< 1"
"225",-58.4577798725755,-14.9284288173593,"Reserva Do Cabaçal",-0.00324690524504572,"Removal","< 0"
"226",-58.45725864,-10.97232039,"Castanheira",-0.000169980080131602,"Removal","< 0"
"227",-58.3252925674605,-15.8391965486319,"Glória D'oeste",0.0109268711354984,"Emission","< 1"
"228",-58.2971145470606,-15.5665635515716,"São José Dos Quatro Marcos",0.028432187064415,"Emission","< 1"
"229",-58.2914778422724,-14.4306181749795,"Tangará Da Serra",0.148297611402123,"Emission","< 1"
"230",-58.2237603,-11.67679344,"Brasnorte",-6.29800801316025e-05,"Removal","< 0"
"231",-58.22353997,-11.5860165,"Brasnorte",0.0037658699198684,"Emission","< 1"
"232",-58.215637,-10.9937863,"Juara",-6.29800801316025e-05,"Removal","< 0"
"233",-58.18972293,-16.2559579,"Cáceres",0.000872069919868398,"Emission","< 1"
"234",-58.16779271,-16.36321387,"Cáceres",0.000872069919868398,"Emission","< 1"
"235",-58.1497724865809,-15.2729671138773,"Rio Branco",0.0091703685395926,"Emission","< 1"
"236",-58.09989512,-15.614832,"Mirassol D'oeste",0.0013594199198684,"Emission","< 1"
"237",-58.085,-15.701,"Mirassol D'oeste",-0.000373499162162268,"Removal","< 0"
"238",-58.0769412732237,-9.76844110533613,"Nova Bandeirantes",-0.0382920444144171,"Removal","< 0"
"239",-58.0609228492539,-4.98478095020853,"Maués",-0.164075097867543,"Removal","< 0"
"240",-58.0549594072212,-15.654156205262,"Mirassol D'oeste",0.000717030441585581,"Emission","< 1"
"241",-58.0508555148344,-15.0508597107544,"Salto Do Céu",0.0597388293764529,"Emission","< 1"
"242",-58.04784174,-15.58106205,"Mirassol D'oeste",-0.000216180080131603,"Removal","< 0"
"243",-58.03857337,-15.83545013,"Cáceres",0.000872069919868398,"Emission","< 1"
"244",-57.9988367438931,-12.4231038202504,"Brasnorte",0.359875684388017,"Emission","< 1"
"245",-57.9309533487676,-13.6882996068892,"Campo Novo Do Parecis",0.305033520029684,"Emission","< 1"
"246",-57.91358315,-15.43245546,"Lambari D'oeste",-0.000495180080131603,"Removal","< 0"
"247",-57.8925674,-13.50818396,"Campo Novo Do Parecis",0.000873969919868398,"Emission","< 1"
"248",-57.8764493715654,-15.6171127513687,"Curvelândia",0.00167835537247825,"Emission","< 1"
"249",-57.875,-21.714,"Porto Murtinho",4.75401745492405e-05,"Emission","< 1"
"250",-57.86135301,-15.88830541,"Cáceres",0.000872069919868398,"Emission","< 1"
"251",-57.8340882546842,-16.5377804581933,"Cáceres",1.25917956121362,"Emission","< 5"
"252",-57.8259982118026,-8.75863583250204,"Apiacás",-0.128021320694385,"Removal","< 0"
"253",-57.805907589702,-1.15915039022104,"Faro",0.103102933716636,"Emission","< 1"
"254",-57.7791794138456,-15.3770719107623,"Lambari D'oeste",0.0478347278861132,"Emission","< 1"
"255",-57.7713101392442,-2.81375732353147,"Urucurituba",0.0593627364530094,"Emission","< 1"
"256",-57.72370268,-14.62275954,"Tangará Da Serra",-6.82300801316024e-05,"Removal","< 0"
"257",-57.69024844,-11.18728143,"Juara",0.000872069919868398,"Emission","< 1"
"258",-57.672772,-19.01193,"Corumbá",0.00228597732633519,"Emission","< 1"
"259",-57.6701099090219,-3.13781090738501,"Maués",0.0620267972172586,"Emission","< 1"
"260",-57.665,-16.089,"Cáceres",-0.000433119532480608,"Removal","< 0"
"261",-57.661,-16.047,"Cáceres",-0.000258056321411507,"Removal","< 0"
"262",-57.6562448522704,-1.68058653918309,"Nhamundá",-0.0565005352810644,"Removal","< 0"
"263",-57.644,-18.994,"Corumbá",-6.33536716407686e-05,"Removal","< 0"
"264",-57.639,-16.038,"Cáceres",-0.000425029759834205,"Removal","< 0"
"265",-57.6294,-18.9975,"Corumbá",0.000118315372912086,"Emission","< 1"
"266",-57.62406,-19.00333,"Corumbá",0.0259136532532017,"Emission","< 1"
"267",-57.6184029212148,-11.0237322415865,"Juara",0.282970072691132,"Emission","< 1"
"268",-57.615,-19,"Corumbá",0.00206190559127705,"Emission","< 1"
"269",-57.60957757,-13.69503914,"Campo Novo Do Parecis",0.0078686199198684,"Emission","< 1"
"270",-57.592,-19.004,"Ladário",-0.000314891695743385,"Removal","< 0"
"271",-57.58639771,-11.144907,"Juara",0.000872069919868398,"Emission","< 1"
"272",-57.57185265,-14.62391007,"Tangará Da Serra",0.000872069919868398,"Emission","< 1"
"273",-57.5688143809632,-19.103063059395,"Ladário",0.00458936262914185,"Emission","< 1"
"274",-57.5595722059162,-15.0677598802489,"Barra Do Bugres",0.185742499322083,"Emission","< 1"
"275",-57.55911772,-13.55591953,"Campo Novo Do Parecis",0.0204669699198684,"Emission","< 1"
"276",-57.5509355,-14.59896529,"Tangará Da Serra",-6.82300801316024e-05,"Removal","< 0"
"277",-57.52774657,-15.10627806,"Barra Do Bugres",0.000873969919868398,"Emission","< 1"
"278",-57.526,-11.271,"Juara",0.000398704020817602,"Emission","< 1"
"279",-57.47,-14.592,"Tangará Da Serra",0.000352120360522171,"Emission","< 1"
"280",-57.4214512995378,-14.8044332812226,"Nova Olímpia",0.0631736095103109,"Emission","< 1"
"281",-57.41185776,-15.51473519,"Barra Do Bugres",4.41699198683975e-05,"Emission","< 1"
"282",-57.3835337273035,-21.2249636182254,"Porto Murtinho",0.0990492991026964,"Emission","< 1"
"283",-57.38267052,-11.31763727,"Novo Horizonte Do Norte",0.0032145199198684,"Emission","< 1"
"284",-57.3756541,-16.20446932,"Cáceres",0.000872069919868398,"Emission","< 1"
"285",-57.346724904822,-14.4503292484128,"Santo Afonso",0.0291798576448141,"Emission","< 1"
"286",-57.3339630469314,-30.1524480455362,"Barra Do Quaraí",-0.00482533187427312,"Removal","< 0"
"287",-57.3035186883959,-11.3836015398611,"Novo Horizonte Do Norte",0.0172258952000496,"Emission","< 1"
"288",-57.3027053044799,-7.44528692343548,"Jacareacanga",-0.0258048289516889,"Removal","< 0"
"289",-57.2574437430099,-14.2904297410748,"Nova Marilândia",-0.0107125339896715,"Removal","< 0"
"290",-57.2456562178729,-9.97018572013359,"Nova Monte Verde",-0.0194267489506701,"Removal","< 0"
"291",-57.220274250998,-12.783863065376,"Nova Maringá",-0.210982219110087,"Removal","< 0"
"292",-57.2155045625486,-15.5211763771302,"Porto Estrela",0.0426231223441284,"Emission","< 1"
"293",-57.172383297958,-3.12902520639055,"Barreirinha",-0.144336482280467,"Removal","< 0"
"294",-57.1497301230321,0.254069242583288,"Oriximiná",0.129436003914287,"Emission","< 1"
"295",-57.13890467,-14.98720974,"Barra Do Bugres",-6.29800801316025e-05,"Removal","< 0"
"296",-57.108,-29.793,"Uruguaiana",0.00404871931511626,"Emission","< 1"
"297",-57.0878853181094,-21.938284685685,"Caracol",0.0783979667264238,"Emission","< 1"
"298",-57.0382,-29.7822,"Uruguaiana",0.000541609764727239,"Emission","< 1"
"299",-57.025,-22.011,"Caracol",-0.000469689611149884,"Removal","< 0"
"300",-57.00492408,-14.51646044,"Santo Afonso",0.0024476699198684,"Emission","< 1"
"301",-56.9616161414945,-14.7300760976715,"Denise",0.0478339146268751,"Emission","< 1"
"302",-56.9447028048734,-16.7828441432995,"Poconé",2.95238085279549,"Emission","< 5"
"303",-56.91585045,-14.41589358,"Arenápolis",0.000872069919868398,"Emission","< 1"
"304",-56.8593416125088,-14.5070910181997,"Arenápolis",0.0115657571958659,"Emission","< 1"
"305",-56.8546448662575,-2.68809796601227,"Parintins",-0.132453591775332,"Removal","< 0"
"306",-56.82623933,-9.89766565,"Paranaíta",0.0013435199198684,"Emission","< 1"
"307",-56.8081878294502,-13.5512338723252,"São José Do Rio Claro",0.0809220003533535,"Emission","< 1"
"308",-56.804568701896,-14.0957382916617,"Diamantino",0.155745493695904,"Emission","< 1"
"309",-56.777625,-2.673521,"Parintins",0.000545598374868305,"Emission","< 1"
"310",-56.7548781131128,-12.1403921842753,"Itanhangá",0.0478790310157352,"Emission","< 1"
"311",-56.75212315,-13.44696652,"São José Do Rio Claro",-0.000495180080131603,"Removal","< 0"
"312",-56.7456983475276,-11.7349582099712,"Porto Dos Gaúchos",0.0948516276924044,"Emission","< 1"
"313",-56.7301005038815,-29.8397310880143,"Uruguaiana",0.0802999444163584,"Emission","< 1"
"314",-56.72942,-20.473665,"Bodoquena",0.0530701532532017,"Emission","< 1"
"315",-56.7232999325528,-18.7225931847311,"Corumbá",5.60862397944007,"Emission",">= 5"
"316",-56.7224929356594,-14.3477372183183,"Nortelândia",0.0117886656354952,"Emission","< 1"
"317",-56.6994733379626,-20.5487721906108,"Bodoquena",0.0190127164306073,"Emission","< 1"
"318",-56.6825888031881,-9.59357436488209,"Paranaíta",-0.0859149747433999,"Removal","< 0"
"319",-56.665,-20.513,"Bodoquena",-0.000216983560166704,"Removal","< 0"
"320",-56.6612417102326,-14.7597973704627,"Alto Paraguai",0.0681757791143014,"Emission","< 1"
"321",-56.622,-30.244,"Quaraí",-0.000357971275397124,"Removal","< 0"
"322",-56.5962366612485,-20.1212078931127,"Miranda",0.277965388863014,"Emission","< 1"
"323",-56.5727399424274,-15.3378434813976,"Jangada",0.0110638066810714,"Emission","< 1"
"324",-56.55919592,-14.26851385,"Nortelândia",0.0119689699198684,"Emission","< 1"
"325",-56.5370815135,-21.9328419161303,"Bela Vista",0.087235497664818,"Emission","< 1"
"326",-56.533,-22.127,"Bela Vista",-0.000152810789199252,"Removal","< 0"
"327",-56.5317642746599,-12.5680085976887,"Tapurah",0.131610176502498,"Emission","< 1"
"328",-56.4967153033799,-5.87113529203093,"Itaituba",-0.696753888103555,"Removal","< 0"
"329",-56.4964420265308,-11.2141294806743,"Tabaporã",0.113346254032134,"Emission","< 1"
"330",-56.4840398268255,-15.8390048101439,"Nossa Senhora Do Livramento",0.0901748885798748,"Emission","< 1"
"331",-56.4828142482968,-21.0332610277088,"Bonito",0.0822715519786717,"Emission","< 1"
"332",-56.479,-30.391,"Quaraí",0.000398635313354039,"Emission","< 1"
"333",-56.462,-21.127,"Bonito",0.00031166782341325,"Emission","< 1"
"334",-56.458424135588,-1.95150349336797,"Terra Santa",0.0420152159807887,"Emission","< 1"
"335",-56.452399,-21.2473,"Bonito",0.000140130171188145,"Emission","< 1"
"336",-56.436,-14.399,"Diamantino",-0.000365941341170384,"Removal","< 0"
"337",-56.421,-14.393,"Diamantino",-0.000486729062113405,"Removal","< 0"
"338",-56.398,-20.25,"Miranda",-0.000294142041747485,"Removal","< 0"
"339",-56.396801,-1.4896,"Oriximiná",-0.00027924588054228,"Removal","< 0"
"340",-56.39150447,-11.61089024,"Porto Dos Gaúchos",0.000873969919868398,"Emission","< 1"
"341",-56.3795,-1.4626,"Oriximiná",0.000381812682391635,"Emission","< 1"
"342",-56.3677085015991,-10.0558045446585,"Alta Floresta",0.0468546937342984,"Emission","< 1"
"343",-56.356,-14.368,"Diamantino",-0.000395210720648044,"Removal","< 0"
"344",-56.3518225651313,-21.5819952582443,"Jardim",0.0313281212619441,"Emission","< 1"
"345",-56.3180357908441,-15.1772693549162,"Acorizal",0.0201358175819267,"Emission","< 1"
"346",-56.265285,-14.644156,"Nobres",0.0516430699198684,"Emission","< 1"
"347",-56.2427510769943,-15.5624784985691,"Várzea Grande",0.00419644887442039,"Emission","< 1"
"348",-56.22433167,-12.38046033,"Ipiranga Do Norte",0.0055045199198684,"Emission","< 1"
"349",-56.2213899038594,-2.62288887000236,"Juruti",0.0725993431838072,"Emission","< 1"
"350",-56.219968,-4.321762,"Itaituba",0.0566650699198684,"Emission","< 1"
"351",-56.182,-15.626,"Várzea Grande",-0.000268445450375079,"Removal","< 0"
"352",-56.178,-15.634,"Várzea Grande",-0.000419601870212761,"Removal","< 0"
"353",-56.177,-21.465,"Jardim",-0.000476079405261204,"Removal","< 0"
"354",-56.176,-15.654,"Várzea Grande",-0.000464948796164066,"Removal","< 0"
"355",-56.176,-15.616,"Várzea Grande",-0.00043471751219653,"Removal","< 0"
"356",-56.1754617388141,-29.2135591504497,"Itaqui",0.0120405189943944,"Emission","< 1"
"357",-56.17,-15.613,"Várzea Grande",-0.000313792376326383,"Removal","< 0"
"358",-56.168,-15.612,"Várzea Grande",-0.00043471751219653,"Removal","< 0"
"359",-56.1674552537979,-13.0372626726435,"Lucas Do Rio Verde",0.149211909671243,"Emission","< 1"
"360",-56.164,-15.557,"Várzea Grande",-0.000479789608293584,"Removal","< 0"
"361",-56.15971636,-9.91901198,"Alta Floresta",-0.000495180080131603,"Removal","< 0"
"362",-56.1527374018117,-30.279385945492,"Quaraí",0.0855185216773415,"Emission","< 1"
"363",-56.149,-15.668,"Várzea Grande",-0.000464948796164066,"Removal","< 0"
"364",-56.137768,-15.333379,"Cuiabá",0.0518951532532017,"Emission","< 1"
"365",-56.135,-15.635,"Várzea Grande",-0.000419601870212761,"Removal","< 0"
"366",-56.13414289,-15.45451402,"Cuiabá",-0.000495180080131603,"Removal","< 0"
"367",-56.133,-21.465,"Jardim",-0.000300463128395242,"Removal","< 0"
"368",-56.131,-15.719,"Várzea Grande",-0.000419601870212761,"Removal","< 0"
"369",-56.13,-15.701,"Várzea Grande",-0.000419601870212761,"Removal","< 0"
"370",-56.13,-15.579,"Cuiabá",-0.000475735867943391,"Removal","< 0"
"371",-56.125,-15.58,"Cuiabá",-0.000490370557682222,"Removal","< 0"
"372",-56.124,-15.579,"Cuiabá",-0.000486660354649842,"Removal","< 0"
"373",-56.122,-15.579,"Cuiabá",-0.000486660354649842,"Removal","< 0"
"374",-56.12119545,-10.19133124,"Carlinda",-6.23800801316025e-05,"Removal","< 0"
"375",-56.121,-15.703,"Várzea Grande",-0.00043471751219653,"Removal","< 0"
"376",-56.116699,-15.6529,"Várzea Grande",0.164156070713347,"Emission","< 1"
"377",-56.11307002,-13.30939043,"Lucas Do Rio Verde",0.0081343199198684,"Emission","< 1"
"378",-56.112,-15.606,"Cuiabá",-0.000489614775583033,"Removal","< 0"
"379",-56.111,-15.63,"Várzea Grande",0.000414712859827684,"Emission","< 1"
"380",-56.111,-15.604,"Cuiabá",-0.000493462393542538,"Removal","< 0"
"381",-56.109,-15.617,"Cuiabá",-0.000432739968117533,"Removal","< 0"
"382",-56.106298,-9.866389,"Alta Floresta",0.00285508584655547,"Emission","< 1"
"383",-56.1060542710769,-13.6295990661229,"Nova Mutum",0.299197718525066,"Emission","< 1"
"384",-56.105,-15.621,"Várzea Grande",-0.00043471751219653,"Removal","< 0"
"385",-56.099,-15.572,"Cuiabá",-0.000486660354649842,"Removal","< 0"
"386",-56.098,-9.852,"Alta Floresta",0.00190305393552036,"Emission","< 1"
"387",-56.097,-15.567,"Cuiabá",-0.00048872157855672,"Removal","< 0"
"388",-56.097,-15.563,"Cuiabá",-0.000465361040945441,"Removal","< 0"
"389",-56.096,-15.561,"Cuiabá",-0.000488652871093157,"Removal","< 0"
"390",-56.094,-15.551,"Cuiabá",-0.000486660354649842,"Removal","< 0"
"391",-56.09,-15.548,"Cuiabá",-0.000239450900751669,"Removal","< 0"
"392",-56.085,-15.541,"Cuiabá",-0.000469620903686322,"Removal","< 0"
"393",-56.083,-15.64,"Várzea Grande",-0.00043471751219653,"Removal","< 0"
"394",-56.081,-15.671,"Várzea Grande",0.00041168973143093,"Emission","< 1"
"395",-56.07348724,-14.4256518,"Diamantino",0.000873969919868398,"Emission","< 1"
"396",-56.069,-15.678,"Cuiabá",0.00591541312066378,"Emission","< 1"
"397",-56.069,-15.559,"Cuiabá",-0.000392874666886916,"Removal","< 0"
"398",-56.065,-15.633,"Cuiabá",-0.000464996420884881,"Removal","< 0"
"399",-56.065,-15.535,"Cuiabá",-0.000478140629168082,"Removal","< 0"
"400",-56.063,-15.657,"Cuiabá",-0.000473880766427202,"Removal","< 0"
"401",-56.06156573,-11.65793207,"Porto Dos Gaúchos",-0.000495180080131603,"Removal","< 0"
"402",-56.061,-15.645,"Cuiabá",-0.000469620903686322,"Removal","< 0"
"403",-56.0586592109905,-12.0170262136988,"Ipiranga Do Norte",0.032340648976836,"Emission","< 1"
"404",-56.058,-15.644,"Cuiabá",-0.000491882121880599,"Removal","< 0"
"405",-56.05622691,-13.7028233,"Nova Mutum",-0.000495180080131603,"Removal","< 0"
"406",-56.055,-15.657,"Cuiabá",-0.000486660354649842,"Removal","< 0"
"407",-56.054,-15.642,"Cuiabá",-0.000486660354649842,"Removal","< 0"
"408",-56.05,-15.574,"Cuiabá",-0.000278476740055216,"Removal","< 0"
"409",-56.046,-15.587,"Cuiabá",0.000118171447091575,"Emission","< 1"
"410",-56.0417279038091,-10.7002790700777,"Nova Canaã Do Norte",0.117171723598854,"Emission","< 1"
"411",-56.03911787,-12.20048026,"Ipiranga Do Norte",-0.000495180080131603,"Removal","< 0"
"412",-56.039,-15.607,"Cuiabá",-0.000486660354649842,"Removal","< 0"
"413",-56.038,-15.572,"Cuiabá",0.000390459125190092,"Emission","< 1"
"414",-56.038,-15.541,"Cuiabá",-0.000452581452722801,"Removal","< 0"
"415",-56.036,-15.603,"Cuiabá",-0.000435473294295718,"Removal","< 0"
"416",-56.031,-15.62,"Cuiabá",-0.000486660354649842,"Removal","< 0"
"417",-56.031,-15.616,"Cuiabá",-0.000295722313409424,"Removal","< 0"
"418",-56.031,-15.58,"Cuiabá",-0.000452581452722801,"Removal","< 0"
"419",-56.0295214448918,-16.8103791889482,"Barão De Melgaço",0.309015535387082,"Emission","< 1"
"420",-56.029,-15.552,"Cuiabá",-0.000469620903686322,"Removal","< 0"
"421",-56.027,-15.622,"Cuiabá",-0.000478140629168082,"Removal","< 0"
"422",-56.027,-15.54,"Cuiabá",-0.000358795764959875,"Removal","< 0"
"423",-56.024,-28.643,"São Borja",0.000870861710419672,"Emission","< 1"
"424",-56.024,-15.561,"Cuiabá",-0.000401394392368677,"Removal","< 0"
"425",-56.018,-15.639,"Cuiabá",-0.000469620903686322,"Removal","< 0"
"426",-56.0162983565253,-3.66721510072933,"Aveiro",-0.246500190168732,"Removal","< 0"
"427",-56.014,-15.621,"Cuiabá",-0.000452581452722801,"Removal","< 0"
"428",-56.004,-15.627,"Cuiabá",0.000272076165471761,"Emission","< 1"
"429",-56.0034670778621,-5.13022512626299,"Trairão",-0.192420867383198,"Removal","< 0"
"430",-56.000651,-4.242131,"Itaituba",-0.000241164725294267,"Removal","< 0"
"431",-55.99952738,-14.29005935,"Diamantino",0.000872069919868398,"Emission","< 1"
"432",-55.9961416816383,-21.5416404530566,"Guia Lopes Da Laguna",0.0219751638198029,"Emission","< 1"
"433",-55.994,-15.635,"Cuiabá",-0.000486660354649842,"Removal","< 0"
"434",-55.9723067405879,-22.2055916807531,"Antônio João",0.00362151326510176,"Emission","< 1"
"435",-55.952,-22.178,"Antônio João",-0.000485183144183247,"Removal","< 0"
"436",-55.945,-15.63,"Cuiabá",-0.000486660354649842,"Removal","< 0"
"437",-55.936586485309,-14.7643432853458,"Rosário Oeste",0.06152168995802,"Emission","< 1"
"438",-55.9296624,-15.6885279,"Cuiabá",0.0031736199198684,"Emission","< 1"
"439",-55.912,-13.045,"Lucas Do Rio Verde",0.000164480277532757,"Emission","< 1"
"440",-55.9014588206331,-21.1008154754096,"Nioaque",0.0729421400054309,"Emission","< 1"
"441",-55.9,-13.102,"Lucas Do Rio Verde",-0.000129587666515098,"Removal","< 0"
"442",-55.8769901395673,-19.7462110263331,"Aquidauana",0.220606942086165,"Emission","< 1"
"443",-55.869,-1.768,"Oriximiná",-0.000332271611664518,"Removal","< 0"
"444",-55.8688886,-10.69342013,"Nova Canaã Do Norte",0.000707769919868398,"Emission","< 1"
"445",-55.8357156747354,-29.7639550484666,"Alegrete",0.0834062217386552,"Emission","< 1"
"446",-55.8341592421538,-10.1063830854303,"Carlinda",0.015177357685266,"Emission","< 1"
"447",-55.828,-21.153,"Nioaque",-0.000350207332014552,"Removal","< 0"
"448",-55.8124790161448,-14.3769706363232,"Nobres",0.116519257379558,"Emission","< 1"
"449",-55.798,-20.482,"Anastácio",-0.000328220943674526,"Removal","< 0"
"450",-55.7972815403226,-28.7463922247626,"São Borja",0.0102901245669743,"Emission","< 1"
"451",-55.788,-20.486,"Anastácio",-0.000152535959345001,"Removal","< 0"
"452",-55.783711,-14.87336,"Chapada Dos Guimarães",0.0865107549417351,"Emission","< 1"
"453",-55.774961683944,-29.0661902096133,"Maçambará",-0.00886737667061757,"Removal","< 0"
"454",-55.7720689315029,-20.6962443453238,"Anastácio",0.0452079018506973,"Emission","< 1"
"455",-55.772,-12.542,"Sorriso",-0.000412799831320066,"Removal","< 0"
"456",-55.765,-12.546,"Sorriso",-0.000435198464441468,"Removal","< 0"
"457",-55.753,-29.787,"Alegrete",0.000870174635784046,"Emission","< 1"
"458",-55.7515598929604,-15.6726981444591,"Cuiabá",0.0849403326249649,"Emission","< 1"
"459",-55.73589302,-12.98963571,"Sorriso",0.0029874699198684,"Emission","< 1"
"460",-55.71954645,-15.52922004,"Cuiabá",0.0056094199198684,"Emission","< 1"
"461",-55.71,-12.538,"Sorriso",-0.000116258418583957,"Removal","< 0"
"462",-55.702,-12.538,"Sorriso",-0.000455054921411054,"Removal","< 0"
"463",-55.7,-22.502,"Ponta Porã",0.000400765244724479,"Emission","< 1"
"464",-55.6813754869648,-12.737310035227,"Sorriso",0.320004802982548,"Emission","< 1"
"465",-55.6748651149303,-0.169634777164337,"Óbidos",0.253502737505533,"Emission","< 1"
"466",-55.672341,-12.479177,"Sorriso",-9.56682219320964e-05,"Removal","< 0"
"467",-55.653,-22.514,"Ponta Porã",-0.000124365899284342,"Removal","< 0"
"468",-55.64206281,-10.03090323,"Carlinda",-0.000495180080131603,"Removal","< 0"
"469",-55.6120263639802,-8.06227659667582,"Novo Progresso",0.292825662685581,"Emission","< 1"
"470",-55.5898112714198,-11.1109917887982,"Itaúba",-0.118933006467866,"Removal","< 0"
"471",-55.58682519,-11.9861854,"Sinop",0.0059678199198684,"Emission","< 1"
"472",-55.586109,-11.885001,"Sinop",0.0086459187982424,"Emission","< 1"
"473",-55.583278380589,-22.2014922972773,"Ponta Porã",0.059329577623853,"Emission","< 1"
"474",-55.5621895866363,-30.7384374417626,"Sant'ana Do Livramento",0.21014628388216,"Emission","< 1"
"475",-55.5569060457938,-29.4283797077057,"Manoel Viana",0.0120478592414854,"Emission","< 1"
"476",-55.552146467588,-15.1210090527657,"Chapada Dos Guimarães",0.128023479038805,"Emission","< 1"
"477",-55.5375015717355,-28.2334745153141,"Garruchos",0.00900804772659363,"Emission","< 1"
"478",-55.52905238,-10.72052371,"Colíder",-0.000495180080131603,"Removal","< 0"
"479",-55.52808215,-12.65858801,"Vera",-6.29800801316025e-05,"Removal","< 0"
"480",-55.525,-23.284,"Coronel Sapucaia",-0.000390950857907164,"Removal","< 0"
"481",-55.52,-23.284,"Coronel Sapucaia",-0.000453509003480896,"Removal","< 0"
"482",-55.5194,-1.9086,"Óbidos",-0.000408312341829609,"Removal","< 0"
"483",-55.518,-30.878,"Sant'ana Do Livramento",0.000921292988674608,"Emission","< 1"
"484",-55.5015190388979,-11.7108541224626,"Sinop",0.105147018945487,"Emission","< 1"
"485",-55.4997236,-10.7044195,"Colíder",0.000872069919868398,"Emission","< 1"
"486",-55.471,-10.78,"Colíder",0.000312613568973685,"Emission","< 1"
"487",-55.4685840781738,-10.6309848756424,"Colíder",0.0170069371476871,"Emission","< 1"
"488",-55.4531828013917,-22.907550922211,"Aral Moreira",0.0166228941309844,"Emission","< 1"
"489",-55.4471410467824,-16.5358277370416,"Santo Antônio Do Leverger",0.109015669994172,"Emission","< 1"
"490",-55.43162677,-11.81024029,"Sinop",0.0070560699198684,"Emission","< 1"
"491",-55.43,-23.87,"Paranhos",-0.000244741375445988,"Removal","< 0"
"492",-55.4260361862097,-28.4939553989514,"Santo Antônio Das Missões",0.00970938912918861,"Emission","< 1"
"493",-55.42292841,-10.33548979,"Nova Guarita",0.000872069919868398,"Emission","< 1"
"494",-55.41836989,-15.4995379,"Chapada Dos Guimarães",-0.000495180080131603,"Removal","< 0"
"495",-55.4036807909991,-9.7521550728686,"Novo Mundo",0.0859753849342609,"Emission","< 1"
"496",-55.3968294302714,-21.5433529409263,"Maracaju",0.0877148659528442,"Emission","< 1"
"497",-55.3811900119081,-23.3475162322726,"Coronel Sapucaia",-0.000290671988705776,"Removal","< 0"
"498",-55.3624328652711,-20.600437498932,"Dois Irmãos Do Buriti",0.0715748059629243,"Emission","< 1"
"499",-55.3533014902886,-23.7099883153041,"Paranhos",-0.000934011113749877,"Removal","< 0"
"500",-55.3426330817805,-12.4418593953169,"Vera",0.0416905955047728,"Emission","< 1"
"501",-55.3381782780747,-10.2938631444062,"Nova Guarita",0.0372123398197664,"Emission","< 1"
"502",-55.33695196,-11.81337168,"Sinop",0.000872069919868398,"Emission","< 1"
"503",-55.30703375,-12.33630582,"Vera",-0.000495180080131603,"Removal","< 0"
"504",-55.2940940951511,-13.8330351568984,"Santa Rita Do Trivelato",0.131835022548283,"Emission","< 1"
"505",-55.27178859,-9.95061925,"Novo Mundo",0.000872069919868398,"Emission","< 1"
"506",-55.2673254328078,-28.8099979660883,"Itacurubi",-0.00383294999715847,"Removal","< 0"
"507",-55.2473397497685,-28.2038489073064,"São Nicolau",0.00675203698528499,"Emission","< 1"
"508",-55.2436163342975,-28.0657090029647,"Pirapó",0.00564677774963263,"Emission","< 1"
"509",-55.2384554709095,-2.67933629374346,"Santarém",0.153529614205111,"Emission","< 1"
"510",-55.235,-23.111,"Amambai",-0.000467903217097257,"Removal","< 0"
"511",-55.231,-23.116,"Amambai",-0.000375903923386958,"Removal","< 0"
"512",-55.212,-23.126,"Amambai",-0.000386141335457783,"Removal","< 0"
"513",-55.2107400755368,-4.24104251414216,"Rurópolis",-0.134334132333507,"Removal","< 0"
"514",-55.1587830177564,-29.0685034664221,"Unistalda",-0.00466939123677964,"Removal","< 0"
"515",-55.156,-23.076,"Amambai",-0.000340244749797978,"Removal","< 0"
"516",-55.15,-21.614,"Maracaju",-0.000295825374604768,"Removal","< 0"
"517",-55.1444087596941,-27.9337871670951,"Porto Xavier",0.000876413013349746,"Emission","< 1"
"518",-55.142,-15.56,"Campo Verde",-6.10863253432033e-05,"Removal","< 0"
"519",-55.14,-29.549,"São Francisco De Assis",-0.000405173302864619,"Removal","< 0"
"520",-55.1320952283744,-22.6775156008329,"Laguna Carapã",0.0197767704998632,"Emission","< 1"
"521",-55.1312916631896,-29.4477896105891,"São Francisco De Assis",0.0365444231112194,"Emission","< 1"
"522",-55.12729583,-15.27784353,"Campo Verde",0.0024457199198684,"Emission","< 1"
"523",-55.113491235315,-1.84574285190855,"Curuá",0.0405963947172067,"Emission","< 1"
"524",-55.113362549505,-15.9056025142141,"Jaciara",0.0660265983791824,"Emission","< 1"
"525",-55.112965072623,-30.325934868748,"Rosário Do Sul",0.120126146928674,"Emission","< 1"
"526",-55.0886744421531,-28.0591294301073,"Roque Gonzales",0.00167305636560755,"Emission","< 1"
"527",-55.0796287086792,-28.2046908234209,"Dezesseis De Novembro",-0.00196727171285965,"Removal","< 0"
"528",-55.0573148140826,-19.8075529823572,"Corguinho",0.0525108914126947,"Emission","< 1"
"529",-55.0508129054548,-14.7844769739395,"Nova Brasilândia",0.06742504905602,"Emission","< 1"
"530",-55.04777975,-10.23735531,"Peixoto De Azevedo",-0.000495180080131603,"Removal","< 0"
"531",-55.0476982982042,-11.4481546657286,"Cláudia",0.00316066883249315,"Emission","< 1"
"532",-55.0428697702921,-18.8136162499805,"Rio Verde De Mato Grosso",0.215544580286362,"Emission","< 1"
"533",-55.0391554963246,-0.604682709063287,"Alenquer",0.341813783788051,"Emission","< 1"
"534",-55.032,-23.642,"Tacuru",-0.000363124335164318,"Removal","< 0"
"535",-55.0293939887002,-23.879135827057,"Sete Quedas",0.0105841903965918,"Emission","< 1"
"536",-55.0240917757277,-20.4473990323833,"Terenos",0.0767837203615707,"Emission","< 1"
"537",-55.02292858,-15.65189959,"Jaciara",-0.000495180080131603,"Removal","< 0"
"538",-54.9928497106058,-3.19112745148884,"Belterra",-0.0620239379471606,"Removal","< 0"
"539",-54.9904009584863,-23.6493254357884,"Tacuru",0.0185621430370844,"Emission","< 1"
"540",-54.9840620010531,-10.5125623263105,"Terra Nova Do Norte",0.151752561238194,"Emission","< 1"
"541",-54.9752912420712,-27.9887994925537,"São Paulo Das Missões",0.00214092582104507,"Emission","< 1"
"542",-54.9713888499826,-28.6617476093405,"Bossoroca",0.0084804099491664,"Emission","< 1"
"543",-54.9681730243962,-23.1578083807907,"Amambai",0.0300061421616836,"Emission","< 1"
"544",-54.96357857,-10.18881209,"Matupá",0.0025082699198684,"Emission","< 1"
"545",-54.9629600211274,-19.4469037529742,"Rio Negro",0.0267969303566276,"Emission","< 1"
"546",-54.9581185167835,-15.3448363468101,"Campo Verde",0.118468936973111,"Emission","< 1"
"547",-54.9569097965323,-27.8519819122445,"Porto Lucena",0.0041331128634582,"Emission","< 1"
"548",-54.9551986,-16.06879941,"Jaciara",-0.000495180080131603,"Removal","< 0"
"549",-54.942111972107,-21.093871213077,"Sidrolândia",0.0981561821612418,"Emission","< 1"
"550",-54.926601,-22.2019,"Dourados",0.00305331743192071,"Emission","< 1"
"551",-54.915,-30.23,"Rosário Do Sul",0.000104429954379059,"Emission","< 1"
"552",-54.91,-9.933,"Guarantã Do Norte",0.000390184295335842,"Emission","< 1"
"553",-54.9066691571384,-10.9189198759927,"Nova Santa Helena",0.0259674637209898,"Emission","< 1"
"554",-54.9042249049414,-16.182878614926,"Juscimeira",0.0376807718465786,"Emission","< 1"
"555",-54.8996958927622,-11.9346633922556,"Santa Carmem",0.0499469714453385,"Emission","< 1"
"556",-54.895,-30.267,"Rosário Do Sul",-3.58706862157354e-05,"Removal","< 0"
"557",-54.8949139989754,-28.1234865063989,"São Pedro Do Butiá",0.000262757880504067,"Emission","< 1"
"558",-54.8909210543705,-28.4184655856031,"São Luiz Gonzaga",0.0157431645981863,"Emission","< 1"
"559",-54.8896632058395,-27.7543111945772,"Porto Vera Cruz",0.00224554236173159,"Emission","< 1"
"560",-54.8734925582088,-22.005378838032,"Itaporã",0.0191692615357483,"Emission","< 1"
"561",-54.863,-11.506,"Cláudia",-3.11298712299172e-05,"Removal","< 0"
"562",-54.847,-18.905,"Rio Verde De Mato Grosso",-0.000451963085550738,"Removal","< 0"
"563",-54.842,-29.876,"Cacequi",4.47231685431744e-05,"Emission","< 1"
"564",-54.838882663078,-22.1448642358792,"Itaporã",0.0781946341317773,"Emission","< 1"
"565",-54.836,-22.606,"Caarapó",-0.000226946142383279,"Removal","< 0"
"566",-54.8343944235719,-28.2548960743804,"Rolador",0.00226465585315852,"Emission","< 1"
"567",-54.8341045985162,-27.9629973588181,"Campina Das Missões",0.00401435054570511,"Emission","< 1"
"568",-54.8316732805059,-28.0997426989843,"Salvador Das Missões",0.000574656939275755,"Emission","< 1"
"569",-54.8286,-20.3105,"Terenos",0.000556093601509023,"Emission","< 1"
"570",-54.8215406005027,-29.4033390616535,"Nova Esperança Do Sul",0.0106429151572741,"Emission","< 1"
"571",-54.82,-22.249,"Dourados",0.00187014306047388,"Emission","< 1"
"572",-54.808,-18.897,"Rio Verde De Mato Grosso",-0.000464811381236941,"Removal","< 0"
"573",-54.8028095993529,-29.920427797227,"Cacequi",0.0761568166139983,"Emission","< 1"
"574",-54.8027572934351,-22.5883119305318,"Caarapó",0.0335948848537781,"Emission","< 1"
"575",-54.8,-22.246,"Dourados",0.0018350335465934,"Emission","< 1"
"576",-54.799,-22.28,"Dourados",0.000880893000099809,"Emission","< 1"
"577",-54.7962654101527,-29.1272001788774,"Santiago",0.0671751594765645,"Emission","< 1"
"578",-54.795,-22.204,"Dourados",0.000173206125405205,"Emission","< 1"
"579",-54.794,-22.077,"Itaporã",-0.000436641321176282,"Removal","< 0"
"580",-54.794,-22.076,"Itaporã",-0.000469552196222759,"Removal","< 0"
"581",-54.79306,-2.422423,"Santarém",0.0264787031968364,"Emission","< 1"
"582",-54.78982516,-10.8716804,"Nova Santa Helena",0.000872069919868398,"Emission","< 1"
"583",-54.7815296533861,-27.6535133524297,"Alecrim",0.0075763287853107,"Emission","< 1"
"584",-54.78002184,-11.39587795,"Cláudia",0.000872069919868398,"Emission","< 1"
"585",-54.7765279950109,-15.6563153944882,"Dom Aquino",0.047138655279273,"Emission","< 1"
"586",-54.7595198854183,-12.9964263822447,"Nova Ubiratã",0.0954763737034994,"Emission","< 1"
"587",-54.758,-18.49,"Coxim",-0.000338664478136038,"Removal","< 0"
"588",-54.7542237074271,-29.7095826123769,"São Vicente Do Sul",0.0290395571162217,"Emission","< 1"
"589",-54.74143408,-17.17435303,"Itiquira",0.000872069919868398,"Emission","< 1"
"590",-54.7403043414856,-15.9540734965374,"São Pedro Da Cipa",0.00458033512434342,"Emission","< 1"
"591",-54.7394080367181,-28.1309704951623,"Cerro Largo",0.00211022369116883,"Emission","< 1"
"592",-54.7355135846836,-19.9787141190441,"Rochedo",0.0172140709173891,"Emission","< 1"
"593",-54.7272,-2.4156,"Santarém",-0.000161031919074032,"Removal","< 0"
"594",-54.724803,-16.584292,"Rondonópolis",0.00227899364828465,"Emission","< 1"
"595",-54.7194777987048,-27.9337138386356,"Cândido Godói",0.00601903454650304,"Emission","< 1"
"596",-54.717,-20.48,"Campo Grande",0.00355699074176215,"Emission","< 1"
"597",-54.71310792,-16.05822336,"Juscimeira",-0.000495180080131603,"Removal","< 0"
"598",-54.710999866082,-27.7983624503851,"Santo Cristo",0.00799941778403874,"Emission","< 1"
"599",-54.70605583,-16.44011462,"Rondonópolis",-6.23800801316025e-05,"Removal","< 0"
"600",-54.694,-22.175,"Dourados",-0.00046639165289888,"Removal","< 0"
"601",-54.691,-30.987,"Dom Pedrito",0.00142780441005797,"Emission","< 1"
"602",-54.6847934987379,-16.5674851376944,"Rondonópolis",0.0562429880115854,"Emission","< 1"
"603",-54.673988,-20.469998,"Campo Grande",0.0768367968554974,"Emission","< 1"
"604",-54.6739675350166,-14.588782371004,"Planalto Da Serra",0.126659603899532,"Emission","< 1"
"605",-54.6739131485624,-18.2811956227557,"Coxim",0.196815439871907,"Emission","< 1"
"606",-54.669,-16.488,"Rondonópolis",0.00642874585292413,"Emission","< 1"
"607",-54.6651213499646,-31.0571078382179,"Dom Pedrito",0.206908932732716,"Emission","< 1"
"608",-54.663,-20.555,"Campo Grande",0.0338579333339878,"Emission","< 1"
"609",-54.65723615,-17.13194917,"Itiquira",-0.000233480080131602,"Removal","< 0"
"610",-54.6568537467841,-27.5943109043379,"Porto Mauá",0.00326391178439054,"Emission","< 1"
"611",-54.656566530779,-28.2430187002857,"Mato Queimado",0.00157663812977419,"Emission","< 1"
"612",-54.655262079953,-28.3353346888022,"Caibaté",0.00390576648781971,"Emission","< 1"
"613",-54.65462995,-17.52983524,"Sonora",-0.000495180080131603,"Removal","< 0"
"614",-54.6478286145536,-29.4584645936327,"Jaguari",0.0272787773339075,"Emission","< 1"
"615",-54.646549059671,-28.0381534941601,"Ubiretama",0.000552705265849411,"Emission","< 1"
"616",-54.6211055396438,-9.77626866971787,"Guarantã Do Norte",0.232515782116962,"Emission","< 1"
"617",-54.614,-22.858,"Juti",-0.000464227367796659,"Removal","< 0"
"618",-54.60722988,-16.520438,"Rondonópolis",0.0063700199198684,"Emission","< 1"
"619",-54.5973205925765,-17.3338878158101,"Itiquira",0.236101322130363,"Emission","< 1"
"620",-54.597,-25.503,"Foz Do Iguaçu",0.00130523029506232,"Emission","< 1"
"621",-54.596,-25.561,NA,0.00109450450431588,"Emission","< 1"
"622",-54.595,-25.534,"Foz Do Iguaçu",0.00162066626027814,"Emission","< 1"
"623",-54.5948485,-16.80776393,"Pedra Preta",-0.000495180080131603,"Removal","< 0"
"624",-54.593,-25.555,"Foz Do Iguaçu",0.00609194186654035,"Emission","< 1"
"625",-54.5877756958852,-22.0139824888411,"Douradina",0.00678274802216796,"Emission","< 1"
"626",-54.5864523902175,-28.167954626974,"Guarani Das Missões",0.00239846986742518,"Emission","< 1"
"627",-54.58449453,-16.35258698,"Rondonópolis",-0.000197880080131602,"Removal","< 0"
"628",-54.5823988837051,-28.959292625585,"Capão Do Cipó",0.0289347886452224,"Emission","< 1"
"629",-54.5751531119151,-3.07044000442739,"Santarém",0.183515008089771,"Emission","< 1"
"630",-54.56626512,-16.7688485,"Pedra Preta",-0.000495180080131603,"Removal","< 0"
"631",-54.5661188,-10.86257575,"Marcelândia",-0.000495180080131603,"Removal","< 0"
"632",-54.566,-19.384,"São Gabriel Do Oeste",0.00015073878482024,"Emission","< 1"
"633",-54.561,-18.101,"Pedro Gomes",-0.000478655935144801,"Removal","< 0"
"634",-54.5578125731108,-21.6961399807075,"Rio Brilhante",0.107558818985381,"Emission","< 1"
"635",-54.556,-23.689,"Iguatemi",-0.000401944052077177,"Removal","< 0"
"636",-54.5546081364002,-27.7065112725116,"Tuparendi",0.00878118468076413,"Emission","< 1"
"637",-54.5383006653541,-23.4342040678327,"Iguatemi",0.0771076530634513,"Emission","< 1"
"638",-54.5376205377718,-23.8095522735643,"Japorã",0.00188764598324594,"Emission","< 1"
"639",-54.5367997896651,-28.0288282615039,"Senador Salgado Filho",0.00186143220169676,"Emission","< 1"
"640",-54.536,-25.476,"Foz Do Iguaçu",2.88517444602177e-05,"Emission","< 1"
"641",-54.5356613681737,-27.5467004869502,"Novo Machado",0.00506963879055773,"Emission","< 1"
"642",-54.53233283,-17.03890864,"Pedra Preta",0.000873969919868398,"Emission","< 1"
"643",-54.528,-21.805,"Rio Brilhante",-0.000434854927123655,"Removal","< 0"
"644",-54.523,-22.362,"Fátima Do Sul",-0.000354329779828307,"Removal","< 0"
"645",-54.5216275447968,-28.6727989162005,"São Miguel Das Missões",0.0180815351822626,"Emission","< 1"
"646",-54.512,-11.105,"Marcelândia",-0.000482469199372525,"Removal","< 0"
"647",-54.504,-27.879,"Santa Rosa",-0.00038339303691528,"Removal","< 0"
"648",-54.500659026607,-3.88982415397448,"Placas",-0.0157719018696923,"Removal","< 0"
"649",-54.4970044428078,-27.8644152166233,"Santa Rosa",0.00894513315312876,"Emission","< 1"
"650",-54.489444,-25.594167,"Foz Do Iguaçu",0.0453232861506944,"Emission","< 1"
"651",-54.4888891593795,-22.7762826649784,"Juti",0.0259061355959492,"Emission","< 1"
"652",-54.4827239441663,-19.1691455702419,"São Gabriel Do Oeste",0.0787880936462835,"Emission","< 1"
"653",-54.4823890682478,-25.470902866012,"Santa Terezinha De Itaipu",0.0181049592230706,"Emission","< 1"
"654",-54.48110232,-16.80793928,"Pedra Preta",0.000988969919868398,"Emission","< 1"
"655",-54.473,-16.627,"Pedra Preta",-0.000432381458435402,"Removal","< 0"
"656",-54.467894475123,-29.5375374105721,"Mata",0.0120047434944344,"Emission","< 1"
"657",-54.4636498966351,-28.3817226826844,"Vitória Das Missões",0.000678910871788305,"Emission","< 1"
"658",-54.4601036235878,-28.1451500701692,"Sete De Setembro",-0.000893343489829908,"Removal","< 0"
"659",-54.4397271696476,-22.3373268089478,"Dourados",0.0083792501122881,"Emission","< 1"
"660",-54.43937359,-16.28771221,"Rondonópolis",-0.000495180080131603,"Removal","< 0"
"661",-54.4323888277525,-17.6486399346019,"Sonora",0.0749837001913685,"Emission","< 1"
"662",-54.4309926111385,-27.6393583891787,"Tucunduva",0.00596917986579587,"Emission","< 1"
"663",-54.4273731737574,-25.456644690346,"Santa Terezinha De Itaipu",0.00796682831384258,"Emission","< 1"
"664",-54.4248716666413,-22.4672182335586,"Vicentina",0.010043040847855,"Emission","< 1"
"665",-54.41361499,-17.06236174,"Pedra Preta",-0.000495180080131603,"Removal","< 0"
"666",-54.406,-25.408,"Santa Terezinha De Itaipu",2.50728339642758e-05,"Emission","< 1"
"667",-54.39448615,-16.28558252,"Poxoréo",0.000970669919868397,"Emission","< 1"
"668",-54.3665818744681,-27.4878956842971,"Doutor Maurício Cardoso",0.00263858143652052,"Emission","< 1"
"669",-54.3654252153218,-30.3052667337779,"São Gabriel",0.234860180711999,"Emission","< 1"
"670",-54.3595697023837,-25.1550118271706,"Itaipulândia",0.00710906350187165,"Emission","< 1"
"671",-54.3568742191394,-10.0139757599359,"Matupá",0.225805758821128,"Emission","< 1"
"672",-54.3530489592426,-1.07440016717301,"Monte Alegre",0.167562380657942,"Emission","< 1"
"673",-54.3482973655232,-20.2272336403119,"Jaraguari",0.0869474192105059,"Emission","< 1"
"674",-54.3391532093931,-17.9143098929874,"Pedro Gomes",0.0551538643169504,"Emission","< 1"
"675",-54.32817101,-15.71950234,"Poxoréo",0.000304869919868397,"Emission","< 1"
"676",-54.318,-24.854,"Santa Helena",0.000212094549781626,"Emission","< 1"
"677",-54.3164472844716,-11.5276759969216,"União Do Sul",0.0276413830815581,"Emission","< 1"
"678",-54.313,-15.549,"Primavera Do Leste",0.00136500578836177,"Emission","< 1"
"679",-54.308,-30.335,"São Gabriel",0.00021058298558325,"Emission","< 1"
"680",-54.3062403121828,-24.8872746295342,"Santa Helena",0.00400734030381653,"Emission","< 1"
"681",-54.3055230014962,-19.8056309409195,"Bandeirantes",0.0699272323647416,"Emission","< 1"
"682",-54.303,-22.488,"Jateí",-0.000467903217097257,"Removal","< 0"
"683",-54.302,-25.123,"Missal",-0.000348077400644112,"Removal","< 0"
"684",-54.3018723309496,-28.4595493617085,"Eugênio De Castro",0.0085231906273288,"Emission","< 1"
"685",-54.299844,-2.817134,"Santarém",0.0265584331374684,"Emission","< 1"
"686",-54.2991096115323,-28.0300027280751,"Giruá",0.0155570940583412,"Emission","< 1"
"687",-54.298773968311,-29.4704255785849,"Toropi",0.00809621467384082,"Emission","< 1"
"688",-54.298703089383,-27.5902808714549,"Horizontina",0.00277987658773986,"Emission","< 1"
"689",-54.2980465292173,-29.2914830850651,"Jari",0.0209456001360723,"Emission","< 1"
"690",-54.2977480672625,-28.250488810239,"Santo Ângelo",0.00857710711551182,"Emission","< 1"
"691",-54.296,-23.78,"Eldorado",-0.000428259010621647,"Removal","< 0"
"692",-54.287,-24.096,"Guaíra",0.000714483523351233,"Emission","< 1"
"693",-54.283,-28.316,"Santo Ângelo",0.000499429162400349,"Emission","< 1"
"694",-54.272,-28.288,"Santo Ângelo",-0.00039349303405898,"Removal","< 0"
"695",-54.2707902870489,-23.9419869470394,"Mundo Novo",0.00654284128467317,"Emission","< 1"
"696",-54.27033145,-15.69144882,"Poxoréo",0.000872069919868398,"Emission","< 1"
"697",-54.268082283754,-16.4709557410201,"São José Do Povo",0.00909262682014913,"Emission","< 1"
"698",-54.268,-25.333,"São Miguel Do Iguaçu",0.000248784335324046,"Emission","< 1"
"699",-54.2653585522083,-27.7315851800032,"Três De Maio",0.00760049928579592,"Emission","< 1"
"700",-54.2618469468895,-25.3882410082475,"São Miguel Do Iguaçu",0.0183133747253431,"Emission","< 1"
"701",-54.2526268595437,-24.6337870266301,"Pato Bragado",0.00111082869159077,"Emission","< 1"
"702",-54.2519374,-15.71288842,"Poxoréo",-6.88300801316025e-05,"Removal","< 0"
"703",-54.2494637609653,-20.9135843240394,"Campo Grande",0.147316965067162,"Emission","< 1"
"704",-54.2492077641728,-16.79517259148,"Pedra Preta",0.064824577293649,"Emission","< 1"
"705",-54.2450235765186,-28.5655579473818,"Eugênio De Castro",0.00840716259473715,"Emission","< 1"
"706",-54.2412805516138,-25.0955715654692,"Missal",0.00206924762154191,"Emission","< 1"
"707",-54.2380032297696,-29.6113822589855,"São Pedro Do Sul",0.0437819013745781,"Emission","< 1"
"708",-54.2276656172601,-24.1915329558105,"Guaíra",0.0099734119764752,"Emission","< 1"
"709",-54.227111108387,-24.7114734620419,"Entre Rios Do Oeste",0.00057453481281552,"Emission","< 1"
"710",-54.2250910215198,-23.7382389856807,"Eldorado",0.0235999145810216,"Emission","< 1"
"711",-54.224,-23.065,"Naviraí",0.000190932651004351,"Emission","< 1"
"712",-54.2199543593322,-15.0966827539872,"Primavera Do Leste",0.10774976671447,"Emission","< 1"
"713",-54.2164443002466,-21.4910116521845,"Nova Alvorada Do Sul",0.090937568011092,"Emission","< 1"
"714",-54.1924899032112,-22.4272452117537,"Glória De Dourados",0.0102417842694138,"Emission","< 1"
"715",-54.1860334132577,-24.4334079526889,"Mercedes",0.00344688893294871,"Emission","< 1"
"716",-54.186018785098,-15.8510061173384,"Poxoréo",0.056180090852351,"Emission","< 1"
"717",-54.1848038624019,-11.9329012375014,"Feliz Natal",0.144516513171898,"Emission","< 1"
"718",-54.1804448810154,-27.9011938680588,"Independência",0.00457976808429941,"Emission","< 1"
"719",-54.1632332137995,-29.8134454096257,"Dilermando De Aguiar",0.0155871230671747,"Emission","< 1"
"720",-54.1547960223896,-28.7665437769057,"Jóia",0.0292229768009978,"Emission","< 1"
"721",-54.1536058449451,-30.7720805498148,"Lavras Do Sul",0.109464493765559,"Emission","< 1"
"722",-54.1520819472185,-22.1560907022644,"Deodápolis",0.0169132422245965,"Emission","< 1"
"723",-54.1391159865217,-31.6905554528918,"Aceguá",0.0394856095258333,"Emission","< 1"
"724",-54.1388863225019,-24.571758294073,"Marechal Cândido Rondon",0.0156684260252374,"Emission","< 1"
"725",-54.1364725981392,-27.4875418443446,"Crissiumal",0.00371247677256233,"Emission","< 1"
"726",-54.1254548580323,-27.5952623683416,"Nova Candelária",0.000266679755132084,"Emission","< 1"
"727",-54.1241266982111,-27.7383699953306,"São José Do Inhacorá",0.000288251995831728,"Emission","< 1"
"728",-54.1204122596184,-27.3693287043462,"Tiradentes Do Sul",0.0027249092571228,"Emission","< 1"
"729",-54.1195715221289,-24.8154720317237,"São José Das Palmeiras",0.00370512370396375,"Emission","< 1"
"730",-54.1191667963513,-23.3415683508301,"Itaquiraí",0.0694961490650802,"Emission","< 1"
"731",-54.1089901635314,-13.6776540864373,"Paranatinga",0.461831115900547,"Emission","< 1"
"732",-54.101,-25.286,"Medianeira",0.000115560563476198,"Emission","< 1"
"733",-54.1003020244646,-24.9542118124118,"Diamante D'oeste",0.011273793393047,"Emission","< 1"
"734",-54.0997661530024,-27.6748033155781,"Boa Vista Do Buricá",0.0016165904912868,"Emission","< 1"
"735",-54.0977176351426,-30.3710595279201,"Santa Margarida Do Sul",0.0754662886739861,"Emission","< 1"
"736",-54.0919207887126,-25.2631709630727,"Medianeira",0.00624767297680903,"Emission","< 1"
"737",-54.079,-31.395,"Bagé",-0.000423545678621253,"Removal","< 0"
"738",-54.0760714483108,-25.0943619531087,"Ramilândia",0.0048164695649161,"Emission","< 1"
"739",-54.0654908840055,-29.3096403632454,"Quevedos",0.0274602129792744,"Emission","< 1"
"740",-54.0627792090778,-24.2087136159621,"Terra Roxa",0.0208870499759533,"Emission","< 1"
"741",-54.0603217883469,-28.4038679006452,"Coronel Barros",0.00181632510113682,"Emission","< 1"
"742",-54.059,-14.43,"Paranatinga",0.000580366554477071,"Emission","< 1"
"743",-54.0562082374864,-27.8135434051408,"Alegria",0.000802612184232976,"Emission","< 1"
"744",-54.0534156580906,-10.8862641170858,"Marcelândia",0.203936937322458,"Emission","< 1"
"745",-54.049,-19.53,"Camapuã",-0.000313414485276789,"Removal","< 0"
"746",-54.041,-24.575,"Marechal Cândido Rondon",-0.000152055007100063,"Removal","< 0"
"747",-54.0343683505515,-28.1684838650639,"Catuípe",0.00733650460076733,"Emission","< 1"
"748",-54.0305505302094,-27.9025080301155,"Inhacorá",0.00174686048851049,"Emission","< 1"
"749",-54.029962505838,-25.4795093074341,"Serranópolis Do Iguaçu",0.000279918909478146,"Emission","< 1"
"750",-54.0256657412317,-23.0225380542412,"Naviraí",0.0711696871769549,"Emission","< 1"
"751",-54.0165197209629,-31.2364659513981,"Bagé",0.166565037901141,"Emission","< 1"
"752",-54.0086834089041,-27.3284660976273,"Esperança Do Sul",0.000516376924951183,"Emission","< 1"
"753",-54.0072879185028,-28.5338684289092,"Augusto Pestana",0.00559874251546634,"Emission","< 1"
"754",-54.0034966561396,-29.0205151853595,"Tupanciretã",0.0602648170481808,"Emission","< 1"
"755",-53.994,-25.251,"Matelândia",-5.08489132723784e-05,"Removal","< 0"
"756",-53.9798954566561,-27.5742098386823,"Humaitá",0.00138115709929105,"Emission","< 1"
"757",-53.9765344297987,-24.5717419027967,"Quatro Pontes",0.00254550991802176,"Emission","< 1"
"758",-53.9585386969493,-24.4403550720897,"Nova Santa Rosa",0.00433349941209625,"Emission","< 1"
"759",-53.957309263778,-22.7067257851797,"Jateí",0.0367960455604839,"Emission","< 1"
"760",-53.9532376284176,-27.7290472341829,"São Martinho",0.00231537362924074,"Emission","< 1"
"761",-53.9531579912781,-27.6411263274913,"Sede Nova",0.00171248170752664,"Emission","< 1"
"762",-53.9488437154336,-23.902557959804,"Altônia",0.0184715575392164,"Emission","< 1"
"763",-53.9477318009393,-23.7385986467369,"São Jorge Do Patrocínio",0.00673580477796539,"Emission","< 1"
"764",-53.9292773303758,-27.4410159395004,"Três Passos",0.00284367370179823,"Emission","< 1"
"765",-53.9204604415903,-25.007371785153,"Vera Cruz Do Oeste",0.0112392854835851,"Emission","< 1"
"766",-53.917,-28.357,"Ijuí",-7.09802000962153e-05,"Removal","< 0"
"767",-53.91,-23.881,"Altônia",-1.87625277886521e-05,"Removal","< 0"
"768",-53.9098492129317,-27.9864932503598,"Chiapetta",0.00296134343007092,"Emission","< 1"
"769",-53.9096819063522,-24.7937951686936,"Ouro Verde Do Oeste",0.00834305797566619,"Emission","< 1"
"770",-53.9086932845686,-27.8210537216048,"São Valério Do Sul",0.00201799358417417,"Emission","< 1"
"771",-53.9060071224805,-25.3510464641824,"Matelândia",0.0106878032182113,"Emission","< 1"
"772",-53.8948825999283,-28.3204490217357,"Ijuí",0.0100053758870948,"Emission","< 1"
"773",-53.8938752587932,0.284988912442242,"Almeirim",0.084441647441043,"Emission","< 1"
"774",-53.8922792973599,-27.2412871250127,"Derrubadas",0.00645062126966828,"Emission","< 1"
"775",-53.8907314490113,-24.906504172123,"São Pedro Do Iguaçu",0.00711279471506172,"Emission","< 1"
"776",-53.8894768178976,-31.447733389062,"Hulha Negra",0.0266230515840268,"Emission","< 1"
"777",-53.8866832078342,-6.48617176855341,"Altamira",-0.536054125875536,"Removal","< 0"
"778",-53.8862784595536,-29.4748081172664,"São Martinho Da Serra",0.0276536742095652,"Emission","< 1"
"779",-53.882,-25.047,"Vera Cruz Do Oeste",-0.000382362424961841,"Removal","< 0"
"780",-53.8789185825828,-30.3459939931326,"Vila Nova Do Sul",0.0373382902077194,"Emission","< 1"
"781",-53.8723267436865,-24.0948178211584,"Francisco Alves",0.00678309302093165,"Emission","< 1"
"782",-53.8695156320697,-19.3419254526577,"Camapuã",0.104098566572357,"Emission","< 1"
"783",-53.8658024479816,-22.062443797085,"Angélica",0.0520585105151278,"Emission","< 1"
"784",-53.865,-25.12,"Céu Azul",-6.8369316480837e-05,"Removal","< 0"
"785",-53.8623513558615,-18.7444497755333,"Figueirão",0.0312302922852317,"Emission","< 1"
"786",-53.855,-25.05,"Vera Cruz Do Oeste",-0.000335916179593535,"Removal","< 0"
"787",-53.852,-24.269,"Palotina",0.000474557060590694,"Emission","< 1"
"788",-53.8489269659586,-27.5452636631144,"Bom Progresso",0.000551601636819225,"Emission","< 1"
"789",-53.8375996546174,-28.6560860821374,"Boa Vista Do Cadeado",0.0109258218657087,"Emission","< 1"
"790",-53.8250368820059,-29.7849214049011,"Santa Maria",0.0676670446515497,"Emission","< 1"
"791",-53.8246458685651,-23.5388385801897,"Alto Paraíso",0.0225645318688055,"Emission","< 1"
"792",-53.8246050410259,-27.6683283490948,"Campo Novo",0.00310300091129076,"Emission","< 1"
"793",-53.8240404254026,-24.2746361009445,"Palotina",0.0166186146178759,"Emission","< 1"
"794",-53.822,-29.729,"Santa Maria",0.0114961961205189,"Emission","< 1"
"795",-53.807336098532,-3.58361614429638,"Uruará",0.372689633477778,"Emission","< 1"
"796",-53.7991427811173,-22.3714789600588,"Ivinhema",0.0600321473248008,"Emission","< 1"
"797",-53.7987820543388,-23.714390171179,"Esperança Nova",0.001859356350918,"Emission","< 1"
"798",-53.7969735,-16.8454894,"Alto Garças",0.0043696699198684,"Emission","< 1"
"799",-53.7916909090122,-24.4448536142835,"Maripá",0.00985974497008598,"Emission","< 1"
"800",-53.7818716657741,-22.6030329246406,"Novo Horizonte Do Sul",0.0171810442766312,"Emission","< 1"
"801",-53.781,-25.65,"Capanema",-9.29665884362419e-05,"Removal","< 0"
"802",-53.7778875469667,-24.7048606279856,"Toledo",0.0356298029751023,"Emission","< 1"
"803",-53.769,-22.133,"Angélica",-0.000463128048379658,"Removal","< 0"
"804",-53.7640955704394,-27.3725901206609,"Tenente Portela",0.00805576785866906,"Emission","< 1"
"805",-53.7636601774659,-27.205304969592,"Barra Do Guarita",0.000752950414981683,"Emission","< 1"
"806",-53.7620389009962,-29.576947807833,"Itaara",0.00628497147285993,"Emission","< 1"
"807",-53.7617863401564,-25.2462777022897,"Céu Azul",0.0279520269661373,"Emission","< 1"
"808",-53.7606014861618,-25.6105301822045,"Capanema",0.00653821768811534,"Emission","< 1"
"809",-53.7595767383039,-25.8497396509333,"Pérola D'oeste",0.00381584153678691,"Emission","< 1"
"810",-53.7558150718607,-27.9030809014165,"Santo Augusto",0.00858568708806359,"Emission","< 1"
"811",-53.754,-20.438,"Ribas Do Rio Pardo",-0.000353505290265556,"Removal","< 0"
"812",-53.752,-24.706,"Toledo",0.00124985207943088,"Emission","< 1"
"813",-53.7517789951173,-28.354318581118,"Bozano",0.00257223450551931,"Emission","< 1"
"814",-53.7491923463677,-18.2091524356866,"Alcinópolis",-0.0319767292261019,"Removal","< 0"
"815",-53.7457195941121,-31.554434760551,"Candiota",0.0289101261949987,"Emission","< 1"
"816",-53.74557395646,-27.4904230045171,"Miraguaí",0.000393439195500273,"Emission","< 1"
"817",-53.745,-26.024,"Pranchita",-0.000426884861350395,"Removal","< 0"
"818",-53.7421549640511,-27.5811980597019,"Braga",0.000708798323189539,"Emission","< 1"
"819",-53.74,-24.747,"Toledo",-0.000362952566505412,"Removal","< 0"
"820",-53.739,-24.744,"Toledo",-0.000156314869840943,"Removal","< 0"
"821",-53.738,-24.709,"Toledo",0.000596375393487153,"Emission","< 1"
"822",-53.7371990902685,-28.2099312936232,"Ajuricaba",0.0053371120794515,"Emission","< 1"
"823",-53.734,-24.742,"Toledo",0.0018328349077594,"Emission","< 1"
"824",-53.73320111,-14.87263564,"Santo Antônio Do Leste",-0.000162280080131603,"Removal","< 0"
"825",-53.724,-24.713,"Toledo",-5.71012924565736e-05,"Removal","< 0"
"826",-53.7205563484108,-25.965626158046,"Pranchita",0.00816979266342717,"Emission","< 1"
"827",-53.7198322136792,-24.0451159749723,"Iporã",0.0153981171588482,"Emission","< 1"
"828",-53.7079891675455,-27.1143884768066,"Itapiranga",0.0123802532137557,"Emission","< 1"
"829",-53.7076974982304,-25.7371291030894,"Planalto",0.00728323835654527,"Emission","< 1"
"830",-53.7070634890498,-23.8307943456212,"Pérola",0.00725803796983612,"Emission","< 1"
"831",-53.7036744037855,-28.0761818999935,"Nova Ramada",-6.76176775256183e-05,"Removal","< 0"
"832",-53.703,-24.032,"Iporã",-0.000283767214749535,"Removal","< 0"
"833",-53.7007508436272,-27.2657559014244,"Vista Gaúcha",0.00128054616633631,"Emission","< 1"
"834",-53.6913031092965,-31.8390032462951,"Pedras Altas",0.0194738019245612,"Emission","< 1"
"835",-53.688202,-29.711399,"Santa Maria",8.54898455017334e-05,"Emission","< 1"
"836",-53.6765106962335,-26.6627529680989,"Paraíso",0.00418844278623186,"Emission","< 1"
"837",-53.67145,-31.585375,"Candiota",0.0225126532532017,"Emission","< 1"
"838",-53.6699272708642,-14.8051500770965,"Santo Antônio Do Leste",0.0712381560692503,"Emission","< 1"
"839",-53.6601720601094,-2.12024527059752,"Prainha",-0.0905790652969426,"Removal","< 0"
"840",-53.6524437649879,-29.2584352814607,"Júlio De Castilhos",0.0613872066247691,"Emission","< 1"
"841",-53.65,-28.632,"Cruz Alta",0.000802222954320652,"Emission","< 1"
"842",-53.6477457651714,-26.9890413889842,"Tunápolis",0.00584089191279332,"Emission","< 1"
"843",-53.6472309080263,-26.7682563269237,"Bandeirante",0.00285978027358343,"Emission","< 1"
"844",-53.6463510078552,-27.7977034286202,"Coronel Bicaco",0.00586853927488104,"Emission","< 1"
"845",-53.6343012991337,-27.2216845224649,"Pinheirinho Do Vale",0.00382419725632913,"Emission","< 1"
"846",-53.6342598590289,-25.881025027314,"Bela Vista Da Caroba",0.00283147725328579,"Emission","< 1"
"847",-53.631683987194,-27.5701382531953,"Redentora",0.00405296922487789,"Emission","< 1"
"848",-53.6290968059098,-26.0651465988298,"Santo Antônio Do Sudoeste",0.00912132499713191,"Emission","< 1"
"849",-53.6198236852682,-30.1757370288418,"São Sepé",0.0899112595537758,"Emission","< 1"
"850",-53.6180259404482,-26.9221723037161,"Santa Helena",0.00415302389954985,"Emission","< 1"
"851",-53.6166815210433,-26.856837990765,"Belmonte",0.00203046648448667,"Emission","< 1"
"852",-53.6114737204784,-26.43293594674,"Princesa",-0.00212903118044403,"Removal","< 0"
"853",-53.6060153229709,-25.0366092547022,"Santa Tereza Do Oeste",0.0118788052606265,"Emission","< 1"
"854",-53.5939472408949,-10.1495150710014,"Peixoto De Azevedo",0.170830665608163,"Emission","< 1"
"855",-53.5937319618651,-28.4538374308859,"Pejuçara",0.00177404943312656,"Emission","< 1"
"856",-53.5932872695505,-25.4695780586688,"Capitão Leônidas Marques",0.00831588861536297,"Emission","< 1"
"857",-53.5919529064527,-23.7357485044382,"Xambrê",0.00822299957719435,"Emission","< 1"
"858",-53.5916641463411,-27.0916071292338,"São João Do Oeste",0.00552055862177256,"Emission","< 1"
"859",-53.5900755526219,-16.3847467760887,"Guiratinga",0.0440029544957231,"Emission","< 1"
"860",-53.5878463669568,-27.3278161210403,"Palmitinho",0.00771612876630444,"Emission","< 1"
"861",-53.5856186597508,-23.3736091963711,"Icaraíma",0.0230636243413832,"Emission","< 1"
"862",-53.5845889627932,-24.4259937520367,"Assis Chateaubriand",0.0370426091680783,"Emission","< 1"
"863",-53.5836330616671,-29.5135708058325,"Ivorá",0.00482286749933686,"Emission","< 1"
"864",-53.5809391565788,-16.8882416234431,"Alto Garças",0.0594072511302046,"Emission","< 1"
"865",-53.578,-29.515,"Ivorá",-0.000482056954591149,"Removal","< 0"
"866",-53.5702024990969,-29.6333932580679,"Silveira Martins",0.00943351574263843,"Emission","< 1"
"867",-53.5693081860104,-26.5802536008918,"Guaraciaba",0.00557445644449305,"Emission","< 1"
"868",-53.56875,-20.672917,"Ribas Do Rio Pardo",0.0048594859038684,"Emission","< 1"
"869",-53.5625704069203,-28.7029746152653,"Cruz Alta",0.0298103202480031,"Emission","< 1"
"870",-53.561641664116,-23.9394127015085,"Cafezal Do Sul",0.0094908795962464,"Emission","< 1"
"871",-53.559279,-31.513208,"Pinheiro Machado",0.0516430699198684,"Emission","< 1"
"872",-53.5580465255639,-25.2579546562369,"Lindoeste",0.00773833661239087,"Emission","< 1"
"873",-53.553,-27.237,"Caiçara",-0.000368139980004387,"Removal","< 0"
"874",-53.5528680102748,-25.3847507921925,"Santa Lúcia",0.00107398850962,"Emission","< 1"
"875",-53.5517614519636,-26.1621996780104,"Bom Jesus Do Sul",0.00672183818474261,"Emission","< 1"
"876",-53.5441898167294,-20.5966364871088,"Ribas Do Rio Pardo",0.43619187051102,"Emission","< 1"
"877",-53.5435280722063,-25.6744007904488,"Realeza",0.00746215688521555,"Emission","< 1"
"878",-53.5416962014828,-24.1660871295594,"Brasilândia Do Sul",0.00889212358942437,"Emission","< 1"
"879",-53.534,-24.374,"Assis Chateaubriand",0.000241020391941474,"Emission","< 1"
"880",-53.5308102847662,-26.4805862762545,"São José Do Cedro",0.00310548623028879,"Emission","< 1"
"881",-53.53,-25.758,"Realeza",-2.61627385144527e-06,"Removal","< 0"
"882",-53.5214690141972,-23.0424364816834,"Querência Do Norte",0.035842186480388,"Emission","< 1"
"883",-53.5207901187129,-26.3334586650008,"Dionísio Cerqueira",0.0112605652631095,"Emission","< 1"
"884",-53.5202564452139,-26.2464143376369,"Barracão",0.00466759796261078,"Emission","< 1"
"885",-53.5187218692369,-27.5140632376285,"Erval Seco",0.00964673329005288,"Emission","< 1"
"886",-53.5121212291842,-26.7272369451984,"São Miguel Do Oeste",0.00695516866717027,"Emission","< 1"
"887",-53.5102920411937,-27.3248393237706,"Vista Alegre",0.00133945907406315,"Emission","< 1"
"888",-53.50930160978,-24.6460043681594,"Tupãssi",0.0105047370876431,"Emission","< 1"
"889",-53.5074266490586,-28.3295505334992,"Panambi",0.00879036074165655,"Emission","< 1"
"890",-53.5062068090388,-29.9754614142379,"Formigueiro",0.0193833334748721,"Emission","< 1"
"891",-53.503,-24.935,"Cascavel",0.00204881610090371,"Emission","< 1"
"892",-53.501208,-25.000323,"Cascavel",0.0066316241058464,"Emission","< 1"
"893",-53.495961180417,-27.6761917926526,"Dois Irmãos Das Missões",0.00767464688123479,"Emission","< 1"
"894",-53.4939079607316,-28.1655028164338,"Condor",0.00902207729809166,"Emission","< 1"
"895",-53.4894144189802,-27.0004316348861,"Iporã Do Oeste",0.00982493571058377,"Emission","< 1"
"896",-53.488542,-25.542197,"Nova Prata Do Iguaçu",0.202319019131602,"Emission","< 1"
"897",-53.487,-24.917,"Cascavel",0.00589969838349225,"Emission","< 1"
"898",-53.4858288973421,-27.4084087298999,"Taquaruçu Do Sul",0.000259928637934964,"Emission","< 1"
"899",-53.485,-25.906,"Ampére",0.00011933947397214,"Emission","< 1"
"900",-53.4840206614218,-26.3983363630105,"Guarujá Do Sul",-0.000145258399285411,"Removal","< 0"
"901",-53.4832217779515,-25.9166536718866,"Ampére",0.00783525391969513,"Emission","< 1"
"902",-53.4793005218537,-26.8584135946273,"Descanso",0.0064621356534285,"Emission","< 1"
"903",-53.4780258791804,-26.016007641587,"Pinhal De São Bento",0.00288266792191238,"Emission","< 1"
"904",-53.477940123104,-30.5934229150864,"Caçapava Do Sul",0.106650113354653,"Emission","< 1"
"905",-53.4704779407295,-29.6420956865966,"São João Do Polêsine",0.00323145307291181,"Emission","< 1"
"906",-53.4669968061269,-17.4495040717356,"Alto Araguaia",0.0212900897111191,"Emission","< 1"
"907",-53.4665546571663,-27.2465520827325,"Caiçara",0.00501686664093474,"Emission","< 1"
"908",-53.4628834647431,-29.5579337496153,"Faxinal Do Soturno",0.004471518999545,"Emission","< 1"
"909",-53.4615017858915,-28.8652400649076,"Boa Vista Do Incra",0.014429709991177,"Emission","< 1"
"910",-53.461,-24.013,"Alto Piquiri",-0.00020970056902907,"Removal","< 0"
"911",-53.4563699422081,-15.9065644943324,"Tesouro",0.0666106258738139,"Emission","< 1"
"912",-53.4561769715579,-12.9959615848862,"Gaúcha Do Norte",0.221534362770508,"Emission","< 1"
"913",-53.454,-25.078,"Cascavel",0.00471346402508425,"Emission","< 1"
"914",-53.4464970781198,-27.0992925844265,"Mondaí",0.00813554898047662,"Emission","< 1"
"915",-53.4310608702885,-22.6678259462412,"Taquarussu",0.0484865796250875,"Emission","< 1"
"916",-53.4250553572771,-26.6683578376879,"Barra Bonita",0.00180304223457921,"Emission","< 1"
"917",-53.4242793421559,-23.3538513616914,"Ivaté",0.0299700132239151,"Emission","< 1"
"918",-53.4230396398251,-25.783583134957,"Santa Izabel Do Oeste",0.00837374802256612,"Emission","< 1"
"919",-53.4219677580571,-21.9255816038253,"Nova Andradina",0.120733411832013,"Emission","< 1"
"920",-53.4218305476335,-25.4319686902874,"Boa Vista Da Aparecida",0.00635472350334309,"Emission","< 1"
"921",-53.4162393857794,-29.4333226358147,"Nova Palma",0.019437229281698,"Emission","< 1"
"922",-53.4154104969735,-26.1412813499715,"Salgado Filho",0.00757765833045451,"Emission","< 1"
"923",-53.4141131777112,-23.6798384524001,"Umuarama",0.0449137219699961,"Emission","< 1"
"924",-53.413454474807,-31.4051017438463,"Pinheiro Machado",0.0113191529088064,"Emission","< 1"
"925",-53.4117100872337,-33.6508248662208,"Chuí",-0.00340115104425969,"Removal","< 0"
"926",-53.4105972014362,-24.413958872007,"Jesuítas",0.00727008121503157,"Emission","< 1"
"927",-53.4019824513113,-24.0982967335145,"Alto Piquiri",0.0115180067306393,"Emission","< 1"
"928",-53.4014858105635,-32.0209063167727,"Herval",0.0416346831539037,"Emission","< 1"
"929",-53.3931935968974,-15.5580259013849,"General Carneiro",0.0270362782982813,"Emission","< 1"
"930",-53.391,-24.888,"Cascavel",0.000796107990063581,"Emission","< 1"
"931",-53.3879307644066,-27.1710788354214,"Vicente Dutra",0.00256765802031391,"Emission","< 1"
"932",-53.382291649367,-27.9400064011411,"Palmeira Das Missões",0.0205676096936183,"Emission","< 1"
"933",-53.382,-22.244,"Nova Andradina",-0.000366594062074228,"Removal","< 0"
"934",-53.3795547670981,-25.0277771182466,"Cascavel",0.0540033024829967,"Emission","< 1"
"935",-53.3783076246754,-25.5908002340091,"Nova Prata Do Iguaçu",0.00797713019597417,"Emission","< 1"
"936",-53.377,-23.39,"Ivaté",-0.000407990308870685,"Removal","< 0"
"937",-53.369,-32.569,"Jaguarão",0.000396161844665786,"Emission","< 1"
"938",-53.3650216513273,-23.9230092687449,"Perobal",0.00357411742360261,"Emission","< 1"
"939",-53.3639196533824,-24.6924270361512,"Cafelândia",0.00584632379448693,"Emission","< 1"
"940",-53.3629400481139,-23.0849499290602,"Santa Cruz De Monte Castelo",0.0156938559940178,"Emission","< 1"
"941",-53.3626373515101,-27.5010613520486,"Seberi",0.0029335546357027,"Emission","< 1"
"942",-53.359852499022,-27.3405159060668,"Frederico Westphalen",0.00398911256179086,"Emission","< 1"
"943",-53.3517523859007,-24.4385455364757,"Iracema Do Oeste",0.00141821328739592,"Emission","< 1"
"944",-53.35086722,-17.09699415,"Alto Araguaia",-0.000495180080131603,"Removal","< 0"
"945",-53.34890887,-17.02233862,"Alto Araguaia",0.000872069919868398,"Emission","< 1"
"946",-53.3464021237834,-29.5605377016825,"Dona Francisca",0.00237405509844331,"Emission","< 1"
"947",-53.3452593253403,-26.0953803637536,"Manfrinópolis",0.0143410834857755,"Emission","< 1"
"948",-53.3443519260503,-26.9784550610702,"Riqueza",0.00961084839044652,"Emission","< 1"
"949",-53.3439107347419,-29.8173597801786,"Restinga Seca",0.0316114988833474,"Emission","< 1"
"950",-53.3415202505401,-27.7016006993766,"Boa Vista Das Missões",0.00594793903315824,"Emission","< 1"
"951",-53.3373422967071,-26.7637808215628,"Flor Do Sertão",0.00152403893937715,"Emission","< 1"
"952",-53.3359376983687,-32.4100330642491,"Jaguarão",0.0232218037329419,"Emission","< 1"
"953",-53.335631843771,-29.2914595999484,"Pinhal Grande",0.0199415248739507,"Emission","< 1"
"954",-53.3331086445015,-26.5329481865523,"Anchieta",0.00693158010208104,"Emission","< 1"
"955",-53.332,-24.611,"Cafelândia",0.000180832653860652,"Emission","< 1"
"956",-53.331672648906,-24.2926449999243,"Formosa Do Oeste",0.00523139861513707,"Emission","< 1"
"957",-53.3244564845713,-26.8453171961213,"Iraceminha",0.00416802855666656,"Emission","< 1"
"958",-53.3171239767209,-26.6483895331109,"Romelândia",0.00681021217319043,"Emission","< 1"
"959",-53.3145292583634,-26.3735438267673,"Palma Sola",0.0158807533850376,"Emission","< 1"
"960",-53.3138338214542,-22.8330966989962,"Porto Rico",0.00860206356122146,"Emission","< 1"
"961",-53.311,-24.787,"Corbélia",-0.000268788987692892,"Removal","< 0"
"962",-53.307885818259,1.09776223368137,"Laranjal Do Jari",-0.325384577078904,"Removal","< 0"
"963",-53.2965734956841,-17.827206392476,"Alto Taquari",0.0277737338330218,"Emission","< 1"
"964",-53.2900464011409,-23.3475930465348,"Douradina",0.0148166599444702,"Emission","< 1"
"965",-53.287721,-29.447655,"Nova Palma",0.0299454467102684,"Emission","< 1"
"966",-53.2870604440234,-25.7753894061325,"Salto Do Lontra",0.0135696315367112,"Emission","< 1"
"967",-53.2864773473466,-26.2381516712059,"Flor Da Serra Do Sul",0.00874141980722225,"Emission","< 1"
"968",-53.2845539728961,-28.3738576549925,"Santa Bárbara Do Sul",0.0251557751740437,"Emission","< 1"
"969",-53.282,-24.541,"Nova Aurora",-0.000182217583604037,"Removal","< 0"
"970",-53.277,-24.797,"Corbélia",-0.000290431838715105,"Removal","< 0"
"971",-53.2769814651162,-24.5027190926557,"Nova Aurora",0.00873642447876226,"Emission","< 1"
"972",-53.276,-22.772,"Porto Rico",-0.000449695739253173,"Removal","< 0"
"973",-53.2758839840693,-28.8951238272162,"Fortaleza Dos Valos",0.0119648144272145,"Emission","< 1"
"974",-53.272,-23.781,"Umuarama",0.00497757551501882,"Emission","< 1"
"975",-53.2641117751242,-27.6295460042916,"Jaboticaba",0.00177791638183897,"Emission","< 1"
"976",-53.2630575793555,-27.0251755243054,"Caibi",0.0063233545839093,"Emission","< 1"
"977",-53.2584805673799,-15.0781024058292,"Novo São Joaquim",0.0405511457540556,"Emission","< 1"
"978",-53.2575970239896,-25.8984333145429,"Nova Esperança Do Sudoeste",0.00979651137285706,"Emission","< 1"
"979",-53.2542187935983,-29.0682432276936,"Salto Do Jacuí",0.0133838767544108,"Emission","< 1"
"980",-53.251,-29.056,"Salto Do Jacuí",-0.000278270617664528,"Removal","< 0"
"981",-53.2485556794649,-27.4324212634096,"Cristal Do Sul",-1.60426971733321e-05,"Removal","< 0"
"982",-53.2415571857662,-27.2493367675366,"Iraí",0.00245342472207821,"Emission","< 1"
"983",-53.2407162481244,-23.1144974555481,"Santa Isabel Do Ivaí",0.0104056008151742,"Emission","< 1"
"984",-53.2399617011167,-26.6896434905543,"São Miguel Da Boa Vista",0.0017355847693762,"Emission","< 1"
"985",-53.2376753717873,-27.7797072064072,"São Pedro Das Missões",0.001840956070666,"Emission","< 1"
"986",-53.2370445946493,-24.7425119592895,"Corbélia",0.0109746089572904,"Emission","< 1"
"987",-53.236458,-29.259051,"Pinhal Grande",0.0030313694702684,"Emission","< 1"
"988",-53.2350580358513,-27.5289562821828,"Pinhal",-1.61775053472323e-05,"Removal","< 0"
"989",-53.2265812916944,-29.6080871956211,"Agudo",0.0170014942920216,"Emission","< 1"
"990",-53.2260900399002,-25.6401632163273,"Boa Esperança Do Iguaçu",0.00462251493998727,"Emission","< 1"
"991",-53.2248148895978,-25.4386935478157,"Três Barras Do Paraná",0.0148307980234104,"Emission","< 1"
"992",-53.2215047150739,-23.5823522496428,"Maria Helena",0.0108388758146864,"Emission","< 1"
"993",-53.2106626731398,-24.0536575679437,"Mariluz",0.0118195800977133,"Emission","< 1"
"994",-53.207,-22.994,"Santa Isabel Do Ivaí",-0.000138863174096047,"Removal","< 0"
"995",-53.2060290914855,-27.7032733986234,"Lajeado Do Bugre",0.00110419959184615,"Emission","< 1"
"996",-53.2031294785612,-18.5187917939835,"Costa Rica",0.0451891435466213,"Emission","< 1"
"997",-53.1981128313952,-26.7599735766528,"Maravilha",0.00437921421253473,"Emission","< 1"
"998",-53.1949982414135,-3.16021316956311,"Medicilândia",0.256008186944116,"Emission","< 1"
"999",-53.1926186876719,-27.3655924128466,"Ametista Do Sul",0.00187175451754933,"Emission","< 1"
"1000",-53.1906645930672,-26.8792275561365,"Cunha Porã",0.00554885457681048,"Emission","< 1"
"1001",-53.188468,-29.014228,"Salto Do Jacuí",0.0799419429982684,"Emission","< 1"
"1002",-53.181264547733,-22.7849626442659,"São Pedro Do Paraná",0.00727589088862143,"Emission","< 1"
"1003",-53.1798290657806,-27.0926217357566,"Palmitos",0.0134411505219663,"Emission","< 1"
"1004",-53.1782805560345,-29.22402571986,"Estrela Velha",0.00885215661592179,"Emission","< 1"
"1005",-53.1776015977304,-22.3908161256996,"Batayporã",0.0365007516725092,"Emission","< 1"
"1006",-53.1770036633677,-30.8170393658742,"Santana Da Boa Vista",0.0345573492220202,"Emission","< 1"
"1007",-53.176,-25.428,"Três Barras Do Paraná",-0.000373086917380893,"Removal","< 0"
"1008",-53.1723348820045,-28.5949618017388,"Ibirubá",0.0136807424802415,"Emission","< 1"
"1009",-53.1706219071997,-27.4633934617648,"Rodeio Bonito",0.000881367890816263,"Emission","< 1"
"1010",-53.1699250459573,-26.5927486510529,"Santa Terezinha Do Progresso",0.00507752785454909,"Emission","< 1"
"1011",-53.1671218124014,-27.5618137349007,"Novo Tiradentes",-0.000453723090922982,"Removal","< 0"
"1012",-53.1661447078477,-29.4182602998067,"Ibarama",0.00979165816786338,"Emission","< 1"
"1013",-53.1630880130057,-27.6285496628723,"Cerro Grande",0.000361846043748425,"Emission","< 1"
"1014",-53.157,-24.026,"Mariluz",-0.000183729147802414,"Removal","< 0"
"1015",-53.1565465300077,-26.6760666227111,"Tigrinhos",0.00117588324569802,"Emission","< 1"
"1016",-53.1556962012934,-25.2414167450479,"Catanduvas",0.020970856085659,"Emission","< 1"
"1017",-53.1553324833952,-24.3031439283836,"Quarto Centenário",0.00233064938507971,"Emission","< 1"
"1018",-53.1537697178473,-25.9066457007866,"Enéas Marques",0.0134954414192333,"Emission","< 1"
"1019",-53.1437618814723,-24.6440845713692,"Anahy",0.0024952859251174,"Emission","< 1"
"1020",-53.138,-22.951,"Loanda",0.000212850331880815,"Emission","< 1"
"1021",-53.137,-18.551,"Costa Rica",-0.000456429070682306,"Removal","< 0"
"1022",-53.1340853141212,-23.3291037132424,"Tapira",0.0136717345486461,"Emission","< 1"
"1023",-53.13258224325,-26.0476891435634,"Francisco Beltrão",0.0244185130546497,"Emission","< 1"
"1024",-53.1319796316797,-27.7079319127463,"Sagrada Família",0.00206784483090429,"Emission","< 1"
"1025",-53.1316981165898,-27.7948214973092,"São José Das Missões",0.0021660236919231,"Emission","< 1"
"1026",-53.1303352792535,-19.2281856346383,"Água Clara",0.12366316166472,"Emission","< 1"
"1027",-53.1302902792012,-26.4504187758361,"Campo Erê",0.013984834085079,"Emission","< 1"
"1028",-53.1297518912478,-25.5953923775246,"Cruzeiro Do Iguaçu",0.0060570419166536,"Emission","< 1"
"1029",-53.1283810094683,-14.3746080080162,"Campinápolis",0.0104927726286023,"Emission","< 1"
"1030",-53.1213097269121,-29.6962525263332,"Paraíso Do Sul",0.00775749540353103,"Emission","< 1"
"1031",-53.1212753845819,-16.7505153781052,"Araguainha",0.00467611676217984,"Emission","< 1"
"1032",-53.1168687941796,-28.756920896506,"Quinze De Novembro",0.00504789861757945,"Emission","< 1"
"1033",-53.1159861839769,-27.8995297478452,"Novo Barreiro",0.00296798097746487,"Emission","< 1"
"1034",-53.1150814955506,-28.0969082402181,"Chapada",0.0134446171792663,"Emission","< 1"
"1035",-53.1091964288679,-23.1543529168793,"Santa Mônica",0.00931713342495847,"Emission","< 1"
"1036",-53.1032481922628,-31.4387042849899,"Piratini",-0.00769682394733829,"Removal","< 0"
"1037",-53.1008703368487,-26.9750867767446,"Cunhataí",0.00202628261664444,"Emission","< 1"
"1038",-53.0952882407243,-26.6840207548833,"Bom Jesus Do Oeste",0.00129566452880708,"Emission","< 1"
"1039",-53.0944244099518,-28.3867878563935,"Saldanha Marinho",0.00416393047962639,"Emission","< 1"
"1040",-53.0930861358588,-26.2465397404418,"Marmeleiro",0.00317505010404083,"Emission","< 1"
"1041",-53.0904947342554,-24.8013466219067,"Braganey",0.00888276442805582,"Emission","< 1"
"1042",-53.086912325446,-24.687840326543,"Iguatu",0.00275164223847334,"Emission","< 1"
"1043",-53.0833566481946,-23.7587409911694,"Cruzeiro Do Oeste",0.0236278078114489,"Emission","< 1"
"1044",-53.0779553666095,-27.3356905600656,"Planalto",0.00433560189517514,"Emission","< 1"
"1045",-53.07747077,-13.73301598,"Água Boa",0.000151419919868398,"Emission","< 1"
"1046",-53.0753686007811,-25.7501624675012,"Dois Vizinhos",0.0108935968464657,"Emission","< 1"
"1047",-53.0721668558022,-23.4267029426069,"Nova Olímpia",0.0048761328719417,"Emission","< 1"
"1048",-53.0712529683917,-22.9491320343477,"Loanda",0.0230602074082048,"Emission","< 1"
"1049",-53.07,-23.76,"Cruzeiro Do Oeste",0.000110201381318316,"Emission","< 1"
"1050",-53.0690119174236,-17.2445088634997,"Santa Rita Do Araguaia",0.014436514510689,"Emission","< 1"
"1051",-53.064478655815,-22.7328145233885,"Marilena",0.00811247576056207,"Emission","< 1"
"1052",-53.0638745148106,-27.549524587705,"Liberato Salzano",0.00337720010535403,"Emission","< 1"
"1053",-53.0635230347473,-27.2172609714456,"Alpestre",0.00593785429841727,"Emission","< 1"
"1054",-53.0584829756926,-27.7442572123175,"Novo Xingu",0.00202269254056757,"Emission","< 1"
"1055",-53.0577263072637,-28.9056140757978,"Campos Borges",0.00967710735646951,"Emission","< 1"
"1056",-53.057,-24.208,"Goioerê",0.000330889754281333,"Emission","< 1"
"1057",-53.0522639318045,-29.2588650437532,"Arroio Do Tigre",0.0179135610286309,"Emission","< 1"
"1058",-53.0521846476074,-24.1726707412461,"Goioerê",0.0222276845375394,"Emission","< 1"
"1059",-53.0510962884609,-26.774777464599,"Modelo",0.00173309938564283,"Emission","< 1"
"1060",-53.048,-26.068,"Francisco Beltrão",0.00276450811366802,"Emission","< 1"
"1061",-53.0463,-30.390024,"Cachoeira Do Sul",0.00201859261931749,"Emission","< 1"
"1062",-53.042,-25.749,"Dois Vizinhos",0.000854509334091777,"Emission","< 1"
"1063",-53.0418393080748,-29.5026595960182,"Lagoa Bonita Do Sul",0.00625491414982151,"Emission","< 1"
"1064",-53.0400144241951,-26.8972067891792,"Saudades",0.00506478818385102,"Emission","< 1"
"1065",-53.036,-22.593,"Rosana",0.000457105364845798,"Emission","< 1"
"1066",-53.0314118358428,-27.0301092335344,"São Carlos",0.00387155713779804,"Emission","< 1"
"1067",-53.028,-25.527,"Quedas Do Iguaçu",-0.000442206625724851,"Removal","< 0"
"1068",-53.0262695766117,-29.4055365048391,"Sobradinho",0.00767218549060433,"Emission","< 1"
"1069",-53.0252384410049,-26.6926209204024,"Serra Alta",0.00357774011879734,"Emission","< 1"
"1070",-53.0240412509759,-25.1520134946008,"Ibema",0.00632925606230971,"Emission","< 1"
"1071",-53.0222784400944,-26.5905215205818,"Saltinho",0.00229097298271309,"Emission","< 1"
"1072",-53.021666959999,-24.5049333806972,"Ubiratã",0.0212845524671215,"Emission","< 1"
"1073",-53.02,-26.149,"Marmeleiro",-0.000255528447225313,"Removal","< 0"
"1074",-53.0167036524088,-27.921694751794,"Barra Funda",0.00170218373329236,"Emission","< 1"
"1075",-53.0143283527002,-29.035098621488,"Jacuizinho",0.0168327247614009,"Emission","< 1"
"1076",-53.013902244424,-24.9312406231107,"Campo Bonito",0.0133214319146942,"Emission","< 1"
"1077",-53.009057,-25.534537,"Quedas Do Iguaçu",0.0182461508638684,"Emission","< 1"
"1078",-53.0060053607376,-33.162331741634,"Santa Vitória Do Palmar",-0.0060880040312726,"Removal","< 0"
"1079",-53.0055714897654,-24.0244395447755,"Moreira Sales",0.0150120315373785,"Emission","< 1"
"1080",-52.9954903033169,-29.7601449776444,"Novo Cabrais",0.000444547573201927,"Emission","< 1"
"1081",-52.9954766201508,-29.6270589612104,"Cerro Branco",0.0052807681220591,"Emission","< 1"
"1082",-52.993,-24.514,"Ubiratã",-6.84380239443997e-05,"Removal","< 0"
"1083",-52.9913530974452,-28.4724439114,"Colorado",0.00520536198412239,"Emission","< 1"
"1084",-52.99030751961,-27.6892652126767,"Constantina",0.003773446737819,"Emission","< 1"
"1085",-52.988924805127,-28.8043198184101,"Alto Alegre",0.00431774920411799,"Emission","< 1"
"1086",-52.9876112944807,-26.4876953040302,"São Bernardino",-1.77429741508546e-05,"Removal","< 0"
"1087",-52.9864521411545,-30.206205164197,"Cachoeira Do Sul",0.143013790781311,"Emission","< 1"
"1088",-52.9795183359184,-27.9968190083179,"Nova Boa Vista",0.00150114601176823,"Emission","< 1"
"1089",-52.9794713665826,-32.7541499523663,NA,0.000127347016172474,"Emission","< 1"
"1090",-52.9786274833689,-28.6686112464024,"Selbach",0.0041960535526601,"Emission","< 1"
"1091",-52.9766320704843,-26.8293734814432,"Pinhalzinho",0.00386881981472773,"Emission","< 1"
"1092",-52.973,-22.751,"Nova Londrina",-4.98870087825023e-05,"Removal","< 0"
"1093",-52.965,-26.155,"Renascença",-0.000293042722330483,"Removal","< 0"
"1094",-52.9608237806329,-24.2904886477485,"Rancho Alegre D'oeste",0.00926865740949512,"Emission","< 1"
"1095",-52.958685,-22.471582,"Batayporã",2.12222767154974,"Emission","< 5"
"1096",-52.9584859610843,-23.3828315792779,"Cidade Gaúcha",0.0201527362285528,"Emission","< 1"
"1097",-52.9583811805803,-25.8750895987699,"Verê",0.00857639117983558,"Emission","< 1"
"1098",-52.9567352792386,-27.054386024553,"Águas De Chapecó",0.00353491942820508,"Emission","< 1"
"1099",-52.9549989353141,-25.4574146280759,"Quedas Do Iguaçu",0.0354294663215759,"Emission","< 1"
"1100",-52.9547712790779,-22.7868855621013,"Nova Londrina",0.00983643057043394,"Emission","< 1"
"1101",-52.9508845841736,-26.2251421418675,"Renascença",0.00750943972867795,"Emission","< 1"
"1102",-52.95,-23.368,"Cidade Gaúcha",-2.41217099465337e-05,"Removal","< 0"
"1103",-52.9468004335961,-26.6953418093098,"Sul Brasil",0.00407459419676215,"Emission","< 1"
"1104",-52.9400541709916,-25.6558982373564,"São Jorge D'oeste",0.0102915955794693,"Emission","< 1"
"1105",-52.9365748513311,-16.6589499846534,"Ponte Branca",0.00687037577110257,"Emission","< 1"
"1106",-52.9345207679985,-23.0916563285591,"Planaltina Do Paraná",0.0108307753932903,"Emission","< 1"
"1107",-52.9294293113939,-29.3124866021489,"Segredo",0.013954813935058,"Emission","< 1"
"1108",-52.9266921992408,-19.9628222593252,"Água Clara",0.335249671756547,"Emission","< 1"
"1109",-52.920210769659,-27.1467112037536,"Caxambu Do Sul",0.00354577415365834,"Emission","< 1"
"1110",-52.9198569711035,-32.1884163230987,"Arroio Grande",0.0585975439933575,"Emission","< 1"
"1111",-52.9149157046709,-27.4456873503266,"Gramado Dos Loureiros",0.00309040287325183,"Emission","< 1"
"1112",-52.914,-25.463,"Quedas Do Iguaçu",0.000274824464014265,"Emission","< 1"
"1113",-52.9087284511614,-27.6847725508712,"Engenho Velho",0.000898246786195059,"Emission","< 1"
"1114",-52.9076417820621,-28.1299565845013,"Almirante Tamandaré Do Sul",0.00740815955911577,"Emission","< 1"
"1115",-52.9066927884652,-26.9081685590405,"Nova Erechim",0.00162467776468384,"Emission","< 1"
"1116",-52.899024749617,-27.5277402235979,"Trindade Do Sul",0.00785817463803493,"Emission","< 1"
"1117",-52.8984621477728,-22.7287210741778,"Itaúna Do Sul",0.0016345041716927,"Emission","< 1"
"1118",-52.896302213325,-27.9413288114454,"Sarandi",0.0068972527573499,"Emission","< 1"
"1119",-52.8930772985432,-27.8324751973558,"Rondinha",0.00635969544694834,"Emission","< 1"
"1120",-52.8928284546012,-22.6350438139445,"Diamante Do Norte",0.00509983296934236,"Emission","< 1"
"1121",-52.8927907008031,-29.1140875120296,"Tunas",0.0110084054381312,"Emission","< 1"
"1122",-52.8902945391902,-23.6584577105892,"Tapejara",0.0287804741177443,"Emission","< 1"
"1123",-52.8900991052877,-26.6275922841444,"Irati",0.00324891806767271,"Emission","< 1"
"1124",-52.8899289923489,-16.2947313202044,"Torixoréu",0.0466492121545439,"Emission","< 1"
"1125",-52.884,-25.107,"Guaraniaçu",-0.000259376065184818,"Removal","< 0"
"1126",-52.879738228051,-27.2528384340837,"Rio Dos Índios",0.00537182993431298,"Emission","< 1"
"1127",-52.874,-30.052,"Cachoeira Do Sul",-0.000270644089209081,"Removal","< 0"
"1128",-52.8725022125989,-31.9597303796754,"Pedro Osório",0.0184838998572891,"Emission","< 1"
"1129",-52.8713060211167,-26.7171951902596,"Jardinópolis",0.00284937380172878,"Emission","< 1"
"1130",-52.8699015037954,-29.4392097912514,"Passa Sete",0.00990347123277506,"Emission","< 1"
"1131",-52.8689831760908,-27.0519640450748,"Planalto Alegre",0.00348001566582523,"Emission","< 1"
"1132",-52.868501,-22.60225,"Diamante Do Norte",0.354363608152402,"Emission","< 1"
"1133",-52.866,-23.884,"Tuneiras Do Oeste",-0.000395966502747233,"Removal","< 0"
"1134",-52.8636088428671,-28.2778710243705,"Carazinho",0.0143746463547603,"Emission","< 1"
"1135",-52.8632658667121,-25.055098064383,"Guaraniaçu",0.0421664013363172,"Emission","< 1"
"1136",-52.8615683461025,-28.6613766028118,"Tapera",0.00496176987792574,"Emission","< 1"
"1137",-52.8597728640749,-26.4654882215859,"Novo Horizonte",0.0124710062539994,"Emission","< 1"
"1138",-52.859,-23.723,"Tapejara",0.000375137360815636,"Emission","< 1"
"1139",-52.857250729647,-27.3695015784776,"Nonoai",0.0141747744145286,"Emission","< 1"
"1140",-52.8560099051319,-26.786666327453,"União Do Oeste",0.00359387982821444,"Emission","< 1"
"1141",-52.853,-21.298,"Santa Rita Do Pardo",-0.00046639165289888,"Removal","< 0"
"1142",-52.8523112420241,-26.8516388508793,"Águas Frias",0.0022081495842235,"Emission","< 1"
"1143",-52.845,-28.738,"Espumoso",-0.000252986271073498,"Removal","< 0"
"1144",-52.8434935480509,-23.8792240859935,"Tuneiras Do Oeste",0.022206530465975,"Emission","< 1"
"1145",-52.8388268095029,-26.0860659157882,"Bom Sucesso Do Sul",0.00354028610201555,"Emission","< 1"
"1146",-52.8373537821202,-27.6171394175117,"Três Palmeiras",0.00532279780356626,"Emission","< 1"
"1147",-52.8369038642205,-22.4891461964819,"Rosana",0.0155129130594497,"Emission","< 1"
"1148",-52.8348605559311,-23.1288112554662,"Amaporã",0.00947013562095948,"Emission","< 1"
